name,state,orig_county,established,discontinued,continuous,stamp_index,duration,latitude,longitude,state_full_name
ASH CREEK,AL,Lowndes,1842.0,1843.0,True,9.0,1.0,32.1679203,-86.7319242,Alabama
BARNES,AL,Dallas,1839.0,1842.0,True,9.0,3.0,32.351521,-87.2488781,Alabama
BEARD'S BLUFF,AL,Marshall,1850.0,1852.0,True,9.0,2.0,34.5189738,-86.5433187,Alabama
BEAVER CREEK,AL,Marengo,1836.0,1840.0,True,9.0,4.0,32.1712573,-87.8802895,Alabama
BELLEFONTE DEPOT,AL,Jackson,1857.0,1857.0,True,9.0,0.0,34.7423052,-85.9569229,Alabama
BLUE WATER,AL,Lauderdale,1821.0,1825.0,True,9.0,4.0,34.8898074,-87.4344671,Alabama
BOGLELOOSA,AL,Choctaw,1857.0,1859.0,True,9.0,2.0,31.9876494,-88.3325236,Alabama
BOYLE'S,AL,Jefferson,1828.0,1831.0,False,9.0,3.0,33.5759375,-86.7799903,Alabama
BRADFORD,AL,Jefferson,1828.0,1828.0,True,9.0,0.0,33.7520454,-86.7038799,Alabama
CABA HATCHIE,AL,Macon,1836.0,1838.0,True,9.0,2.0,32.4004163,-85.9985706,Alabama
CEDAR SPRING,AL,Calhoun,1851.0,1852.0,True,9.0,1.0,33.8201006,-85.8349665,Alabama
CEDAR TREE,AL,Talladega,1850.0,1853.0,True,9.0,3.0,33.4570518,-86.265532,Alabama
CEDRON,AL,Randolph,1855.0,1856.0,True,9.0,1.0,33.4659447,-85.5177325,Alabama
CENTREPORT,AL,Dallas,1844.0,1850.0,True,9.0,6.0,32.1529207,-87.0719319,Alabama
CHOCTAW BLUFF,AL,Greene,1831.0,1834.0,True,9.0,3.0,32.7734641,-87.8666805,Alabama
CLEAR CREEK,AL,Fayette,1835.0,1839.0,True,9.0,4.0,33.6663677,-87.5352998,Alabama
COAL CREEK,AL,Jefferson,1859.0,1859.0,True,9.0,0.0,33.6376054,-86.9861072,Alabama
COLEFIRE,AL,Pickens,1834.0,1835.0,True,9.0,1.0,33.4040067,-88.0847485,Alabama
CONCORD,AL,Monroe,1829.0,1831.0,True,9.0,2.0,31.7926536,-87.256932,Alabama
COOSA,AL,Saint Clair,1833.0,1834.0,True,9.0,1.0,33.5523269,-86.2691438,Alabama
COVINGTON,AL,Covington,1826.0,1826.0,True,9.0,0.0,31.3223923,-86.5249594,Alabama
CROSSWELL,AL,Saint Clair,1837.0,1840.0,True,9.0,3.0,33.5550917,-86.2689593,Alabama
CUBA,AL,Sumter,1854.0,1856.0,True,9.0,2.0,32.4290985,-88.3767674,Alabama
DITTO'S LANDING,AL,Madison,1820.0,1825.0,True,9.0,5.0,34.5764803,-86.5636024,Alabama
DIXIE,AL,Escambia,1874.0,1875.0,True,9.0,1.0,31.1446197,-86.719404,Alabama
FAIR VIEW,AL,De Kalb,1855.0,1856.0,True,9.0,1.0,34.7792468,-85.6263572,Alabama
FORT MONTGOMERY,AL,Baldwin,1816.0,1818.0,True,9.0,2.0,31.2125,-87.8197222,Alabama
FRANKLIN COURT HOUSE,AL,Franklin,1815.0,1818.0,True,9.0,3.0,34.4416706,-87.843812,Alabama
FRIENDSHIP,AL,Marshall,1877.0,1878.0,True,9.0,1.0,34.1509289,-86.2841466,Alabama
GILBREATH'S,AL,Blount,1820.0,1822.0,True,9.0,2.0,34.2367553,-86.4374815,Alabama
GREENLAND,AL,Covington,1852.0,1855.0,True,9.0,3.0,31.0162908,-86.4188378,Alabama
GREENVILLE,AL,Conecun,1818.0,1818.0,True,9.0,0.0,31.5084965,-86.8763619,Alabama
HARGROVE'S,AL,Pickens,1823.0,1828.0,True,9.0,5.0,33.3506668,-87.9161249,Alabama
HEBRON,AL,Greene,1826.0,1833.0,True,9.0,7.0,32.874018,-88.079744,Alabama
HICKORY FLAT,AL,Madison,1817.0,1822.0,True,9.0,5.0,34.9609211,-86.4105457,Alabama
INDIAN RIDGE,AL,Clarke,1844.0,1847.0,True,9.0,3.0,31.6620331,-87.6637268,Alabama
INDIAN SPRINGS,AL,Lauderdale,1839.0,1839.0,True,9.0,0.0,34.8261981,-87.6019714,Alabama
JACK SPRINGS,AL,Escambia,1879.0,1879.0,True,9.0,0.0,31.1612868,-87.5524865,Alabama
LIBERTY,AL,Clarke,1830.0,1835.0,True,9.0,5.0,31.8132097,-87.7005554,Alabama
LIBERTY,AL,Jackson,1850.0,1853.0,True,9.0,3.0,34.7309288,-86.0521054,Alabama
LIBERTY MILLS,AL,Madison,1846.0,1847.0,True,9.0,1.0,34.8460714,-86.6336753,Alabama
MARTINS STAND,AL,Blount,1844.0,1845.0,True,9.0,1.0,34.20454,-86.4941552,Alabama
MAUVILLA,AL,Mobile,1856.0,1856.0,True,9.0,0.0,30.8368527,-88.1844479,Alabama
MC CONNICO,AL,Greene,1834.0,1840.0,True,9.0,6.0,32.6354121,-87.9458492,Alabama
MC GAIL'S HILL,AL,Lowndes,1832.0,1832.0,True,9.0,0.0,32.2751399,-86.6113658,Alabama
MECHANICSVILLE,AL,Calhoun,1837.0,1838.0,True,9.0,1.0,33.655659,-85.8582991,Alabama
MILLERS FERRY,AL,Wilcox,1819.0,1819.0,True,9.0,0.0,32.0995897,-87.3674944,Alabama
MILLVILLE,AL,Geneva,1876.0,1877.0,True,9.0,1.0,31.0293464,-85.7127108,Alabama
MINERAL SPRINGS,AL,Talladega,1837.0,1840.0,True,9.0,3.0,33.1215065,-86.4433121,Alabama
NEW HOME,AL,Clay,1828.0,1828.0,True,9.0,0.0,33.1097532,-85.9578527,Alabama
OAK GROVE,AL,Jackson,1837.0,1841.0,True,9.0,4.0,34.8075824,-85.861365,Alabama
OAK HALL,AL,Pickens,1824.0,1827.0,True,9.0,3.0,33.1412283,-88.1450223,Alabama
OCMULGEE,AL,Perry,1850.0,1853.0,True,9.0,3.0,32.530967,-87.1033262,Alabama
PINE FLAT,AL,Monroe,1818.0,1819.0,True,9.0,1.0,31.8202459,-87.3822448,Alabama
PLEASANT GROVE,AL,Perry,1828.0,1830.0,True,9.0,2.0,32.7506844,-87.2255532,Alabama
PORTERSVILLE,AL,Mobile,1828.0,1829.0,True,9.0,1.0,30.3829771,-88.2383363,Alabama
RAMAH CHURCH,AL,Barbour,1860.0,1861.0,True,9.0,1.0,32.1059864,-85.3985525,Alabama
RED HILL,AL,Blount,1836.0,1839.0,True,9.0,3.0,33.8420471,-86.9249983,Alabama
RED RIDGE,AL,Tallapoosa,1873.0,1873.0,True,9.0,0.0,32.7696965,-85.7854834,Alabama
REESES MILLS,AL,Etowah,1870.0,1871.0,True,9.0,1.0,34.0723186,-86.0333062,Alabama
RENTERVILLE,AL,Escambia,1871.0,1871.0,True,9.0,0.0,31.000182,-87.2608071,Alabama
RETREAT,AL,Wilcox,1833.0,1836.0,True,9.0,3.0,32.147366,-87.3199935,Alabama
SHADY GROVE,AL,Calhoun,1839.0,1840.0,True,9.0,1.0,33.9464896,-85.7013528,Alabama
SHADY GROVE,AL,Jefferson,1852.0,1855.0,True,9.0,3.0,33.5931617,-87.0033291,Alabama
SHADY GROVE,AL,Russell,1836.0,1838.0,True,9.0,2.0,32.1559852,-85.3077172,Alabama
SHEFFIELD MILLS,AL,Wilcox,1828.0,1829.0,True,9.0,1.0,31.9815383,-87.545277,Alabama
STANDING BROOK,AL,Chambers,1837.0,1837.0,True,9.0,0.0,33.0798443,-85.2530002,Alabama
SULPHUR SPRINGS,AL,Madison,1826.0,1826.0,True,9.0,0.0,34.9175886,-86.5058251,Alabama
SULPHUR SPRINGS,AL,Saint Clair,1850.0,1852.0,True,9.0,2.0,33.7631553,-86.4030378,Alabama
TUGGSVILLE,AL,Clarke,1818.0,1919.0,True,9.0,101.0,31.5896041,-87.693051,Alabama
UNION HILL,AL,Pike,1835.0,1838.0,True,9.0,3.0,31.8382853,-85.9281125,Alabama
WEBSTER,AL,Coosa,1853.0,1854.0,True,9.0,1.0,32.9942879,-86.3874766,Alabama
WESLEY CHAPEL,AL,Pike,1858.0,1860.0,False,9.0,2.0,31.8396016,-85.8838381,Alabama
WHITE SULPHUR SPRINGS,AL,Morgan,1834.0,1835.0,True,9.0,1.0,34.4955445,-86.6879681,Alabama
WILLSTOWN,AL,De Kalb,1836.0,1837.0,True,9.0,1.0,34.3709236,-85.8152471,Alabama
ACTUSTON,AL,Butler,1883.0,1883.0,True,8.0,0.0,31.5946043,-86.7777507,Alabama
ARAHBURGH,AL,Russell,1886.0,1887.0,True,8.0,1.0,32.3243138,-85.1021566,Alabama
ARARAT,AL,Choctaw,1837.0,1844.0,True,8.0,7.0,31.9682064,-88.1466822,Alabama
ATCHINSON,AL,Washington,1886.0,1886.0,True,8.0,0.0,31.6293276,-88.0847289,Alabama
AUTAUGA,AL,Autauga,1822.0,1824.0,True,8.0,2.0,32.4084704,-86.422195,Alabama
BASS,AL,Cherokee,1883.0,1883.0,True,8.0,0.0,34.027877,-85.4952362,Alabama
BELLEVUE,AL,Lauderdale,1834.0,1842.0,False,8.0,8.0,34.8111981,-87.4097449,Alabama
BENTONVILLE,AL,Coffee,1850.0,1851.0,True,8.0,1.0,31.4146108,-86.0677243,Alabama
BIBB,AL,Bibb,1823.0,1828.0,True,8.0,5.0,32.9986443,-87.1264391,Alabama
BIBBVILLE,AL,Bibb,1828.0,1829.0,True,8.0,1.0,33.1934506,-87.1763856,Alabama
BIG CHUM,AL,Lauderdale,1880.0,1881.0,True,8.0,1.0,34.9511965,-87.871142,Alabama
BLACK CREEK,AL,Choctaw,1857.0,1866.0,True,8.0,9.0,31.7884892,-88.2511248,Alabama
BLACK CREEK,AL,Jefferson,1877.0,1879.0,True,8.0,2.0,33.6142704,-86.781102,Alabama
BLACK WARRIOR,AL,Tuscaloosa,1818.0,1822.0,True,8.0,4.0,33.2098407,-87.5691735,Alabama
BLUE EYE,AL,Calhoun,1844.0,1853.0,True,8.0,9.0,33.6473245,-86.0208033,Alabama
BOARTUSH,AL,Winston,1885.0,1886.0,True,8.0,1.0,34.1917665,-87.6222458,Alabama
BONNER'S MILLS,AL,Pickens,1844.0,1847.0,True,8.0,3.0,33.1934547,-88.054746,Alabama
BOX SPRING,AL,Tuscaloosa,1878.0,1880.0,True,8.0,2.0,33.1959519,-87.4858377,Alabama
BRIDGEVILLE,AL,Coffee,1840.0,1850.0,False,8.0,10.0,31.4146108,-86.0677243,Alabama
BROWN,AL,Fayette,1859.0,1859.0,False,8.0,0.0,33.5589957,-87.8936258,Alabama
BROWNSVILLE,AL,Clay,1872.0,1874.0,True,8.0,2.0,33.125951,-86.0471904,Alabama
BURFORD'S LANDING,AL,Wilcox,1868.0,1869.0,True,8.0,1.0,31.9529271,-87.3933266,Alabama
BURRSVILLE,AL,Russell,1849.0,1854.0,True,8.0,5.0,32.2418146,-85.4163327,Alabama
CAMP SMITH,AL,Colbert,1876.0,1879.0,True,8.0,3.0,34.5906483,-87.6769745,Alabama
CANDLE,AL,Bibb,1880.0,1880.0,True,8.0,0.0,33.1037305,-87.0555494,Alabama
CARPENTER'S STATION,AL,Baldwin,1861.0,1861.0,True,8.0,0.0,30.8571299,-87.8661053,Alabama
CARROLTON,AL,Jefferson,1819.0,1821.0,True,8.0,2.0,33.4684405,-86.87138,Alabama
CARTER,AL,Montgomery,1879.0,1879.0,True,8.0,0.0,32.3506945,-86.3246916,Alabama
CEDAR POINT,AL,Mobile,1868.0,1869.0,True,8.0,1.0,30.3115904,-88.1375001,Alabama
CHOSA,AL,Calhoun,1896.0,1896.0,True,8.0,0.0,33.6953818,-85.6735724,Alabama
CLARKSVILLE,AL,Madison,1855.0,1858.0,True,8.0,3.0,34.4875914,-86.5049887,Alabama
COLUMBIA,AL,Shelby,1828.0,1828.0,True,8.0,0.0,33.1781718,-86.6072054,Alabama
CONECUH,AL,Conecun,1821.0,1824.0,True,8.0,3.0,31.4292715,-86.9936742,Alabama
CORNISH'S,AL,Lauderdale,1825.0,1834.0,True,8.0,9.0,34.971472,-87.5139128,Alabama
COTTON GIN,AL,Lauderdale,1838.0,1843.0,True,8.0,5.0,34.9981388,-87.2183493,Alabama
COWHEAD,AL,Morgan,1887.0,1887.0,True,8.0,0.0,34.3325155,-86.7604311,Alabama
COX'S,AL,Blount,1818.0,1828.0,True,8.0,10.0,34.2367553,-86.4374815,Alabama
ELLIOTTSVILLE,AL,Shelby,1860.0,1867.0,True,8.0,7.0,33.2098378,-86.8285997,Alabama
ESCAMBIA,AL,Escambia,1880.0,1880.0,True,8.0,0.0,31.1261225,-87.1616199,Alabama
FLINT RIVER,AL,Madison,1853.0,1856.0,True,8.0,3.0,34.8780429,-86.5188687,Alabama
FORT CLAIBORNE,AL,Monroe,1815.0,1822.0,True,8.0,7.0,31.5401611,-87.5155464,Alabama
FORT STODDART,AL,Mobile,1804.0,1829.0,True,8.0,25.0,31.0998991,-87.979165,Alabama
FROGLEVEL,AL,Fayette,1885.0,1886.0,True,8.0,1.0,33.6845539,-87.8308522,Alabama
FULTON,AL,Dallas,1850.0,1850.0,True,8.0,0.0,32.3113356,-87.225274,Alabama
GRACE,AL,Covington,1880.0,1881.0,True,8.0,1.0,31.0079577,-86.3293907,Alabama
GREGORY,AL,Marshall,1884.0,1884.0,True,8.0,0.0,34.2981488,-86.2880364,Alabama
HALF ACRE,AL,Marengo,1855.0,1858.0,True,8.0,3.0,32.1945898,-87.9122352,Alabama
HAMPTONVILLE,AL,Cherokee,1836.0,1839.0,True,8.0,3.0,34.1798177,-85.7613555,Alabama
HANDYTOWN,AL,Talladega,1873.0,1874.0,True,8.0,1.0,33.2023374,-86.4083116,Alabama
HARRELLS CROSS ROADS,AL,Dallas,1843.0,1846.0,True,8.0,3.0,32.4293027,-87.2094387,Alabama
HATCHERS,AL,Clay,1874.0,1876.0,True,8.0,2.0,33.2356702,-86.0380242,Alabama
HIGH PINE,AL,Randolph,1848.0,1854.0,True,8.0,6.0,33.1228983,-85.4430062,Alabama
HOLLY SPRING,AL,Fayette,1879.0,1880.0,True,8.0,1.0,33.6370563,-87.5141728,Alabama
HURRICANE,AL,Tuscaloosa,1878.0,1880.0,True,8.0,2.0,33.2270615,-87.3233337,Alabama
IRONA,AL,Talladega,1870.0,1871.0,True,8.0,1.0,33.4267757,-85.9710785,Alabama
JACKSON,AL,Jackson,1820.0,1822.0,True,8.0,2.0,34.779416,-85.9993005,Alabama
JANEBURGH,AL,Walker,1886.0,1887.0,True,8.0,1.0,33.8248272,-87.0861125,Alabama
JONES HILL,AL,Tuscaloosa,1853.0,1858.0,True,8.0,5.0,33.2103954,-87.347501,Alabama
KEARNEY,AL,Calhoun,1882.0,1883.0,True,8.0,1.0,33.8853789,-85.708297,Alabama
LANES MILLS,AL,Winston,1877.0,1880.0,True,8.0,3.0,34.10555,-87.33389,Alabama
LEAMAN'S STORE,AL,Henry,1826.0,1838.0,False,8.0,12.0,31.5048931,-85.0738177,Alabama
LEE'S COVE,AL,Shelby,1849.0,1854.0,True,8.0,5.0,33.2028938,-86.8688784,Alabama
LIBERTY,AL,Cherokee,1842.0,1843.0,True,8.0,1.0,33.9864891,-85.5441263,Alabama
LINE CREEK,AL,Bullock,1869.0,1870.0,True,8.0,1.0,32.1445922,-85.9013426,Alabama
LOCUST FORK,AL,Blount,1840.0,1843.0,True,8.0,3.0,33.9046262,-86.6215467,Alabama
MANVILLE,AL,Mobile,1870.0,1871.0,True,8.0,1.0,30.8368527,-88.1844479,Alabama
MARION,AL,Marion,1821.0,1824.0,True,8.0,3.0,34.1365497,-87.8871384,Alabama
MARSHALL,AL,Calhoun,1876.0,1879.0,True,8.0,3.0,33.8225999,-85.8927457,Alabama
MC GEHEES,AL,Montgomery,1875.0,1877.0,True,8.0,2.0,32.2698631,-86.3746921,Alabama
MINDEN,AL,Calhoun,1878.0,1879.0,True,8.0,1.0,33.702323,-86.106084,Alabama
MODENA,AL,Tuscaloosa,1880.0,1881.0,True,8.0,1.0,33.0562331,-87.4505588,Alabama
MOUNT ARARAT,AL,Choctaw,1878.0,1880.0,True,8.0,2.0,31.9682064,-88.1466822,Alabama
MOUNT SERENE,AL,Barbour,1848.0,1857.0,True,8.0,9.0,31.8795104,-85.3383325,Alabama
MOUNT ZION,AL,Tallapoosa,1852.0,1856.0,True,8.0,4.0,32.8590144,-85.9596858,Alabama
MOUNTAIN SPRING,AL,Talladega,1837.0,1844.0,True,8.0,7.0,33.2009486,-86.2333069,Alabama
NAVY COVE,AL,Baldwin,1880.0,1881.0,True,8.0,1.0,30.246037,-87.9847187,Alabama
NEBO,AL,Jefferson,1857.0,1866.0,True,8.0,9.0,33.6726046,-86.9483291,Alabama
NESMITH,AL,Winston,1875.0,1876.0,True,8.0,1.0,34.1723176,-87.1163936,Alabama
NEW PROSPECT,AL,Tallapoosa,1859.0,1861.0,True,8.0,2.0,32.6776311,-85.819125,Alabama
OAKLEY,AL,Madison,1834.0,1842.0,False,8.0,8.0,34.9823097,-86.3933232,Alabama
OHATCHIE,AL,Calhoun,1840.0,1842.0,True,8.0,2.0,33.7834324,-86.0024703,Alabama
OKFUSKEE,AL,Tallapoosa,1832.0,1840.0,False,8.0,8.0,32.8167936,-85.873572,Alabama
OLD TOWN,AL,Conecun,1821.0,1829.0,False,8.0,8.0,31.4293324,-86.8452481,Alabama
OLIVET,AL,Russell,1850.0,1856.0,True,8.0,6.0,32.2807038,-85.1674364,Alabama
PHILADELPHIA,AL,Montgomery,1819.0,1920.0,True,8.0,101.0,31.9676306,-86.2510262,Alabama
PINE GROVE,AL,Blount,1871.0,1873.0,True,8.0,2.0,34.0284304,-86.3574824,Alabama
PINE GROVE,AL,Macon,1840.0,1846.0,True,8.0,6.0,32.4231898,-85.5591119,Alabama
PINK HILL,AL,Saint Clair,1833.0,1834.0,True,8.0,1.0,33.5964925,-86.2860889,Alabama
POLK,AL,Saint Clair,1882.0,1883.0,True,8.0,1.0,33.5920478,-86.3988698,Alabama
PRINCE LANDING,AL,Washington,1878.0,1879.0,True,8.0,1.0,31.5282189,-87.9561122,Alabama
PROSPECT,AL,Barbour,1880.0,1880.0,True,8.0,0.0,31.7623865,-85.4704956,Alabama
READMAN,AL,Saint Clair,1882.0,1883.0,True,8.0,1.0,33.6056867,-86.2038513,Alabama
RILEY'S STORE,AL,Russell,1879.0,1881.0,True,8.0,2.0,32.3243138,-85.1021566,Alabama
ROBBINSVILLE,AL,Coosa,1836.0,1836.0,True,8.0,0.0,32.8279036,-86.1110787,Alabama
SANTAFEE,AL,Blount,1846.0,1847.0,False,8.0,1.0,34.20454,-86.4941552,Alabama
SHEPHERD,AL,Fayette,1880.0,1881.0,True,8.0,1.0,33.5453847,-87.8016768,Alabama
SILVER RUN,AL,Russell,1856.0,1856.0,True,8.0,0.0,32.2973697,-85.1688255,Alabama
SIMMONS,AL,Madison,1832.0,1835.0,True,8.0,3.0,34.5884185,-86.6258221,Alabama
SMUT EYE,AL,Coffee,1850.0,1853.0,True,8.0,3.0,31.5298866,-85.938278,Alabama
SNOWS CREEK,AL,Calhoun,1848.0,1848.0,True,8.0,0.0,33.6142714,-85.8349648,Alabama
SPENCERVILLE,AL,Marengo,1850.0,1855.0,True,8.0,5.0,32.2048678,-87.7563978,Alabama
SPONGE,AL,Winston,1882.0,1883.0,True,8.0,1.0,34.05555,-87.55334,Alabama
SWAN,AL,Cullman,1879.0,1881.0,True,8.0,2.0,34.0687117,-86.9161134,Alabama
TEHOPEKA,AL,Tallapoosa,1855.0,1866.0,True,8.0,11.0,32.9556792,-85.7605146,Alabama
TIPTON,AL,Dallas,1884.0,1886.0,True,8.0,2.0,32.3704153,-87.016378,Alabama
TRINITY,AL,Morgan,1848.0,1853.0,True,8.0,5.0,34.5887262,-87.0894441,Alabama
TUSCEGEE,AL,Macon,1836.0,1839.0,True,8.0,3.0,32.4253975,-85.694278,Alabama
VIENNA,AL,Madison,1832.0,1834.0,True,8.0,2.0,34.5370339,-86.3944307,Alabama
VINCENT,AL,Talladega,1884.0,1884.0,True,8.0,0.0,33.3176119,-86.1571945,Alabama
VINESVILLE,AL,Jefferson,1858.0,1867.0,True,8.0,9.0,33.4809402,-86.8969362,Alabama
WATSON CHAPEL,AL,Elmore,1873.0,1873.0,True,8.0,0.0,32.6812413,-86.0177412,Alabama
WHITES GAP,AL,Calhoun,1877.0,1877.0,True,8.0,0.0,33.7784351,-85.7394082,Alabama
WILLS VALLEY,AL,De Kalb,1855.0,1857.0,True,8.0,2.0,34.4778647,-85.7141339,Alabama
WILSON HILL,AL,Shelby,1823.0,1826.0,True,8.0,3.0,33.1006746,-86.8641558,Alabama
WOLF SPRING,AL,Lawrence,1848.0,1857.0,True,8.0,9.0,34.5950921,-87.4728025,Alabama
ADKINSON HEAD,AL,Barbour,1855.0,1874.0,True,7.0,19.0,31.7087753,-85.6104972,Alabama
AIR,AL,Morgan,1890.0,1893.0,True,7.0,3.0,34.3739838,-86.7622215,Alabama
ALBANY,AL,Chambers,1898.0,1899.0,True,7.0,1.0,33.0362336,-85.4385612,Alabama
ANTIOCH,AL,Marengo,1831.0,1844.0,True,7.0,13.0,32.0143121,-87.8941709,Alabama
ANTIOCH,AL,Pickens,1849.0,1879.0,False,7.0,30.0,33.4420556,-88.1078001,Alabama
APPLING,AL,Tuscaloosa,1880.0,1886.0,True,7.0,6.0,33.6003897,-87.6022312,Alabama
AUGUSTA,AL,Montgomery,1820.0,1826.0,True,7.0,6.0,32.4140209,-86.1438494,Alabama
BANNER,AL,Etowah,1900.0,1901.0,True,7.0,1.0,34.0084331,-85.7763553,Alabama
BAUXITE,AL,Cherokee,1895.0,1897.0,True,7.0,2.0,34.047321,-85.4596797,Alabama
BEAR CREEK,AL,Randolph,1878.0,1886.0,True,7.0,8.0,33.3726082,-85.4038353,Alabama
BEASLEY,AL,Calhoun,1882.0,1888.0,True,7.0,6.0,33.7575995,-85.9816363,Alabama
BEECHBORO,AL,Jackson,1890.0,1892.0,True,7.0,2.0,34.8528643,-86.2077624,Alabama
BENNET'S STATION,AL,Sumter,1866.0,1877.0,True,7.0,11.0,32.4904155,-88.1861362,Alabama
BENNETT,AL,Baldwin,1898.0,1900.0,True,7.0,2.0,30.6182476,-87.7530454,Alabama
BENNETTSVILLE,AL,Etowah,1874.0,1883.0,True,7.0,9.0,34.0389858,-86.0721959,Alabama
BESSIE,AL,Chilton,1903.0,1903.0,True,7.0,0.0,32.9442902,-86.8324878,Alabama
BESSIE MINES,AL,Jefferson,1891.0,1893.0,True,7.0,2.0,33.6417726,-87.0249969,Alabama
BETHLEHEM,AL,Chambers,1850.0,1876.0,False,7.0,26.0,33.0576228,-85.2232769,Alabama
BIG SPRING,AL,Colbert,1814.0,1823.0,True,7.0,9.0,34.7312005,-87.70253,Alabama
BIG SPRING,AL,Marshall,1844.0,1866.0,True,7.0,22.0,34.2259284,-86.4066517,Alabama
BIG SWAMP,AL,Lowndes,1820.0,1831.0,False,7.0,11.0,32.1840315,-86.5802533,Alabama
BIRMINGHAM,AL,Jackson,1845.0,1848.0,True,7.0,3.0,34.8434203,-86.2430408,Alabama
BLAKELY,AL,Baldwin,1826.0,1866.0,True,7.0,40.0,30.7421332,-87.9241622,Alabama
BLUE MOUNTAIN,AL,Calhoun,1860.0,1871.0,False,7.0,11.0,33.6877176,-85.8246064,Alabama
BLUFF CITY,AL,Morgan,1874.0,1877.0,True,7.0,3.0,34.5456482,-86.781389,Alabama
BLUFFPORT,AL,Sumter,1892.0,1894.0,True,7.0,2.0,32.5940245,-88.115578,Alabama
BODINE,AL,Marshall,1904.0,1905.0,True,7.0,1.0,34.2972974,-86.3669431,Alabama
BOILING SPRING,AL,Calhoun,1846.0,1854.0,True,7.0,8.0,33.6148273,-85.7927415,Alabama
BOLEY SPRINGS,AL,Fayette,1877.0,1887.0,True,7.0,10.0,33.6431675,-87.5100061,Alabama
BRAEHEAD,AL,Bibb,1901.0,1903.0,True,7.0,2.0,33.082898,-87.1536072,Alabama
BRUCE,AL,Etowah,1887.0,1887.0,True,7.0,0.0,34.0945406,-85.9719158,Alabama
BRUCEVILLE,AL,Bullock,1850.0,1879.0,False,7.0,29.0,32.0979276,-85.8482852,Alabama
BRUSHY POND,AL,Cullman,1904.0,1905.0,True,7.0,1.0,34.0287133,-87.0075043,Alabama
BUZBEEVILLE,AL,Coffee,1853.0,1868.0,False,7.0,15.0,31.5298866,-85.938278,Alabama
CAFFEE,AL,Bibb,1885.0,1886.0,True,7.0,1.0,33.1648157,-87.1542062,Alabama
CARICON,AL,Winston,1898.0,1898.0,True,7.0,0.0,34.21499,-87.38056,Alabama
CARLOWSVILLE,AL,Dallas,1832.0,1840.0,True,7.0,8.0,32.0870889,-87.0341526,Alabama
CARRICK'S MILLS,AL,Jackson,1871.0,1878.0,True,7.0,7.0,34.8542518,-86.1138717,Alabama
CARTERS HILL,AL,Montgomery,1834.0,1849.0,True,7.0,15.0,32.1959772,-86.1877411,Alabama
CENTRE RIDGE,AL,Pike,1890.0,1892.0,True,7.0,2.0,31.6362722,-85.9721701,Alabama
CHEATHAM,AL,Colbert,1884.0,1889.0,True,7.0,5.0,34.6564802,-87.7333645,Alabama
CHESTNUT CREEK,AL,Chilton,1833.0,1879.0,False,7.0,46.0,32.7751276,-86.5455347,Alabama
CHESTNUT HILL,AL,Perry,1844.0,1866.0,True,7.0,22.0,32.5931879,-87.049992,Alabama
CILICIA,AL,Winston,1884.0,1886.0,True,7.0,2.0,34.09888,-87.30556,Alabama
CITICO,AL,Etowah,1900.0,1901.0,True,7.0,1.0,34.0825967,-85.9313593,Alabama
CLINTON,AL,Wilcox,1855.0,1857.0,True,7.0,2.0,32.0140121,-87.4786149,Alabama
CLYDE,AL,De Kalb,1898.0,1901.0,True,7.0,3.0,34.3667571,-85.8716376,Alabama
COFFEE,AL,Bibb,1885.0,1886.0,True,7.0,1.0,33.1648157,-87.1542062,Alabama
COFFEE CORNER,AL,Coffee,1846.0,1860.0,True,7.0,14.0,31.5359961,-86.1566185,Alabama
COHORT,AL,Crenshaw,1889.0,1891.0,True,7.0,2.0,31.5822428,-86.2563583,Alabama
COKERVILLE,AL,Monroe,1855.0,1882.0,False,7.0,27.0,31.7190451,-87.0491494,Alabama
COLBERT,AL,Russell,1855.0,1866.0,True,7.0,11.0,32.2826476,-85.2366056,Alabama
CONCHARDA,AL,Talladega,1880.0,1884.0,True,7.0,4.0,33.5612157,-86.1244171,Alabama
CONCHARDEE,AL,Talladega,1849.0,1866.0,True,7.0,17.0,33.5601047,-86.1199726,Alabama
CONNORSVILLE,AL,Jefferson,1876.0,1879.0,True,7.0,3.0,33.3462241,-87.1436074,Alabama
CONOLY,AL,Monroe,1905.0,1906.0,True,7.0,1.0,31.439054,-87.3380399,Alabama
COOSA RIVER,AL,Elmore,1891.0,1892.0,True,7.0,1.0,32.6479085,-86.3696957,Alabama
COPENHAGEN,AL,Jackson,1878.0,1883.0,True,7.0,5.0,34.9842475,-85.7249714,Alabama
COPPERAS GAP,AL,Blount,1856.0,1872.0,False,7.0,16.0,33.974544,-86.7566634,Alabama
COTTAGE GROVE,AL,Coosa,1908.0,1908.0,True,7.0,0.0,32.8556806,-86.1224682,Alabama
COUNTY LINE,AL,Clay,1856.0,1870.0,True,7.0,14.0,33.3106696,-85.7544051,Alabama
COVE,AL,Shelby,1849.0,1856.0,True,7.0,7.0,33.296224,-86.8436004,Alabama
COVE CREEK,AL,Calhoun,1837.0,1873.0,False,7.0,36.0,33.716767,-86.0063589,Alabama
COXVILLE,AL,Etowah,1873.0,1887.0,True,7.0,14.0,34.1125958,-86.0735851,Alabama
CROCKETTSVILLE,AL,Russell,1839.0,1843.0,True,7.0,4.0,32.4568081,-85.1896611,Alabama
CROSS ROADS,AL,Escambia,1831.0,1869.0,False,7.0,38.0,31.1051779,-87.0721918,Alabama
CRUTCHFIELD,AL,Geneva,1881.0,1883.0,True,7.0,2.0,31.033235,-85.7691,Alabama
CUNNINGHAM,AL,Jefferson,1874.0,1875.0,True,7.0,1.0,33.674547,-86.7688805,Alabama
CURRY,AL,Talladega,1858.0,1866.0,True,7.0,8.0,33.4864957,-86.0171912,Alabama
CUSHING,AL,Tuscaloosa,1855.0,1870.0,False,7.0,15.0,33.0420679,-87.7689003,Alabama
DEMOCRAT,AL,Walker,1856.0,1881.0,True,7.0,25.0,33.7556606,-87.0499992,Alabama
DIANA,AL,Saint Clair,1834.0,1837.0,True,7.0,3.0,33.5523269,-86.2691438,Alabama
DOLBERRY,AL,Jackson,1885.0,1885.0,True,7.0,0.0,34.8228334,-86.0579423,Alabama
DORRIS,AL,Walker,1890.0,1893.0,True,7.0,3.0,33.9906913,-87.5509126,Alabama
DOUBLE SPRINGS,AL,Etowah,1836.0,1846.0,True,7.0,10.0,34.014264,-86.0066386,Alabama
DYKES,AL,Barbour,1892.0,1894.0,True,7.0,2.0,31.8537711,-85.6224438,Alabama
EAGAN,AL,Geneva,1901.0,1902.0,True,7.0,1.0,31.1360106,-85.5191005,Alabama
EASTVILLE,AL,Randolph,1839.0,1866.0,True,7.0,27.0,33.4681676,-85.3796732,Alabama
EDENVILLE,AL,Mobile,1896.0,1897.0,True,7.0,1.0,30.69019,-88.1916699,Alabama
ELDER,AL,Tallapoosa,1893.0,1896.0,True,7.0,3.0,32.9454018,-85.7094019,Alabama
ELGIN,AL,Lauderdale,1904.0,1905.0,True,7.0,1.0,34.8486973,-87.391133,Alabama
ELM BLUFF,AL,Dallas,1850.0,1871.0,False,7.0,21.0,32.1529207,-87.0719319,Alabama
EPWORTH,AL,Barbour,1892.0,1898.0,True,7.0,6.0,31.8662725,-85.2016003,Alabama
ESTER,AL,Etowah,1894.0,1896.0,True,7.0,2.0,33.9992641,-86.121086,Alabama
FAIRVIEW,AL,Walker,1856.0,1871.0,True,7.0,15.0,33.6028883,-87.3497245,Alabama
FARRIORVILLE,AL,Pike,1850.0,1868.0,False,7.0,18.0,32.0234851,-85.9157858,Alabama
FAYS,AL,Elmore,1898.0,1899.0,True,7.0,1.0,32.4806909,-86.4099732,Alabama
FLINT HILL,AL,Clay,1875.0,1881.0,False,7.0,6.0,33.1478963,-85.7482931,Alabama
FLORA,AL,Shelby,1834.0,1846.0,False,7.0,12.0,33.1859498,-86.8624893,Alabama
FORT DALE,AL,Butler,1826.0,1840.0,False,7.0,14.0,31.8915398,-86.6574756,Alabama
FORT DECATUR,AL,Macon,1839.0,1859.0,False,7.0,20.0,32.4522222,-85.8766667,Alabama
FRANKLIN,AL,Henry,1830.0,1877.0,False,7.0,47.0,31.6085012,-85.0846515,Alabama
FRANKLIN,AL,Lauderdale,1890.0,1893.0,True,7.0,3.0,34.950084,-87.5750251,Alabama
FRIENDSHIP,AL,Butler,1851.0,1866.0,True,7.0,15.0,31.6229218,-86.7429673,Alabama
GALLITON,AL,Marshall,1891.0,1893.0,True,7.0,2.0,34.1712064,-86.282202,Alabama
GARDNERVILLE,AL,Crenshaw,1891.0,1893.0,True,7.0,2.0,31.8762633,-86.2727411,Alabama
GARFIELD,AL,Fayette,1881.0,1884.0,True,7.0,3.0,33.809295,-87.7167054,Alabama
GEORGIAVILLE,AL,Conecun,1903.0,1904.0,True,7.0,1.0,31.2368384,-86.7305176,Alabama
GERALD,AL,Dale,1898.0,1901.0,True,7.0,3.0,31.3237826,-85.7571579,Alabama
GOLD RIDGE,AL,Randolph,1856.0,1866.0,True,7.0,10.0,33.4895558,-85.3855069,Alabama
GONDOLA,AL,Washington,1880.0,1887.0,True,7.0,7.0,31.2168416,-88.317234,Alabama
GOOSE POND,AL,Chilton,1871.0,1871.0,True,7.0,0.0,32.8387371,-86.6294262,Alabama
GORE,AL,Pickens,1895.0,1898.0,True,7.0,3.0,33.3862301,-88.1844752,Alabama
GOSHEN,AL,Cherokee,1844.0,1868.0,True,7.0,24.0,33.9623163,-85.6171792,Alabama
GREEN SPRINGS,AL,Hale,1873.0,1885.0,True,7.0,12.0,32.8981821,-87.6244518,Alabama
GREENS,AL,Jefferson,1828.0,1845.0,True,7.0,17.0,33.6503805,-86.7233234,Alabama
GREENVILLE,AL,Jefferson,1803.0,1828.0,True,7.0,25.0,33.5878814,-86.6894327,Alabama
GREENWOOD,AL,Bullock,1891.0,1895.0,True,7.0,4.0,32.1765357,-85.8863426,Alabama
GREENWOOD,AL,De Kalb,1850.0,1875.0,False,7.0,25.0,34.4351444,-85.7315494,Alabama
GROVER,AL,Colbert,1887.0,1889.0,True,7.0,2.0,34.6125918,-87.5416932,Alabama
GRUBBS,AL,Barbour,1890.0,1892.0,True,7.0,2.0,31.8398832,-85.5749428,Alabama
HALAWAKA,AL,Lee,1884.0,1890.0,True,7.0,6.0,32.6645788,-85.1713285,Alabama
HALLSVILLE,AL,Pike,1852.0,1877.0,False,7.0,25.0,31.7454346,-86.1038438,Alabama
HANA,AL,Cherokee,1896.0,1897.0,True,7.0,1.0,34.0978754,-85.6744083,Alabama
HARDWICK,AL,Saint Clair,1905.0,1906.0,True,7.0,1.0,33.6884346,-86.3524802,Alabama
HARRIS STATION,AL,Limestone,1868.0,1880.0,False,7.0,12.0,34.6587022,-86.9702856,Alabama
HAWORTH,AL,Etowah,1890.0,1891.0,True,7.0,1.0,34.1364843,-86.0533069,Alabama
HEAD SPRING,AL,De Kalb,1854.0,1866.0,True,7.0,12.0,34.6343489,-85.6137253,Alabama
HENSON SPRINGS,AL,Lamar,1892.0,1893.0,True,7.0,1.0,34.0192707,-88.0641996,Alabama
HERNANDO,AL,Macon,1851.0,1867.0,False,7.0,16.0,32.3148667,-85.5096694,Alabama
HIGH PINE,AL,Baldwin,1892.0,1894.0,True,7.0,2.0,30.8521078,-87.6387498,Alabama
HILL,AL,Walker,1906.0,1907.0,True,7.0,1.0,33.9367733,-87.3675102,Alabama
HILLSBORO,AL,Madison,1822.0,1828.0,False,7.0,6.0,34.9389769,-86.4233234,Alabama
HOMER,AL,De Kalb,1898.0,1900.0,True,7.0,2.0,34.2634265,-85.9071929,Alabama
HONEY,AL,Marshall,1881.0,1886.0,True,7.0,5.0,34.4296845,-86.3706445,Alabama
HUBBARD,AL,Chilton,1902.0,1903.0,True,7.0,1.0,32.8990135,-86.8180428,Alabama
HUEY'S,AL,Jefferson,1873.0,1876.0,True,7.0,3.0,33.4512197,-86.9966606,Alabama
HURST,AL,Barbour,1892.0,1894.0,True,7.0,2.0,31.8309952,-85.5096637,Alabama
INDIGO HEAD,AL,Coffee,1840.0,1860.0,True,7.0,20.0,31.4071125,-85.8941078,Alabama
INGLE,AL,Walker,1905.0,1906.0,True,7.0,1.0,33.9753761,-87.1622239,Alabama
IRENE,AL,Calhoun,1902.0,1903.0,True,7.0,1.0,33.9389891,-85.7957997,Alabama
JAMESTOWN,AL,Sumter,1832.0,1842.0,True,7.0,10.0,32.9376282,-88.2030841,Alabama
JEFFERSON MINES,AL,Jefferson,1875.0,1880.0,True,7.0,5.0,33.7778796,-86.8130499,Alabama
JINHILL,AL,Walker,1888.0,1892.0,True,7.0,4.0,33.6784419,-87.2461125,Alabama
JONESVILLE,AL,Jackson,1852.0,1854.0,True,7.0,2.0,34.9475807,-85.7144155,Alabama
KENDALLS CROSS ROADS,AL,Chambers,1856.0,1874.0,False,7.0,18.0,32.8367943,-85.5071733,Alabama
KENNAMER,AL,Marshall,1850.0,1861.0,True,7.0,11.0,34.4339716,-86.2438656,Alabama
KENNEDALE,AL,Tuscaloosa,1868.0,1877.0,False,7.0,9.0,33.1808219,-87.4468333,Alabama
KEYSBURGH,AL,Etowah,1877.0,1889.0,True,7.0,12.0,33.9450988,-85.9180249,Alabama
KINGS HILL,AL,Cherokee,1852.0,1869.0,False,7.0,17.0,34.1339853,-85.8188567,Alabama
KINGSVILLE,AL,Talladega,1850.0,1856.0,True,7.0,6.0,33.6131588,-86.1183061,Alabama
KITSON,AL,Talladega,1890.0,1895.0,True,7.0,5.0,33.383443,-86.2666425,Alabama
LADONIA,AL,Russell,1889.0,1891.0,True,7.0,2.0,32.4681977,-85.0791016,Alabama
LANEY,AL,Calhoun,1889.0,1895.0,True,7.0,6.0,33.8564885,-85.905524,Alabama
LARKINS LANDING,AL,Jackson,1900.0,1901.0,True,7.0,1.0,34.5784194,-86.0452565,Alabama
LAWLEY,AL,Shelby,1880.0,1886.0,True,7.0,6.0,33.5012164,-86.4474816,Alabama
LILE,AL,Lawrence,1890.0,1891.0,True,7.0,1.0,34.7303603,-87.3133487,Alabama
LITTLE RIVER,AL,Cherokee,1858.0,1875.0,False,7.0,17.0,34.2814815,-85.6732979,Alabama
LITTLETON,AL,Etowah,1887.0,1894.0,False,7.0,7.0,34.0670409,-86.133031,Alabama
LONDON,AL,Conecun,1895.0,1896.0,True,7.0,1.0,31.2976707,-87.0877517,Alabama
LONG CREEK,AL,Butler,1858.0,1866.0,True,7.0,8.0,31.621548,-86.8244191,Alabama
LOOSIER,AL,Lawrence,1901.0,1902.0,True,7.0,1.0,34.5717595,-87.3702999,Alabama
LOWNDES,AL,Lowndes,1830.0,1832.0,False,7.0,2.0,32.15475,-86.6501077,Alabama
LUCKY HIT,AL,Limestone,1849.0,1866.0,True,7.0,17.0,34.7986987,-87.2144615,Alabama
MAGNOLIA,AL,Macon,1853.0,1861.0,False,7.0,8.0,32.3515255,-85.5907783,Alabama
MAHLEP,AL,Calhoun,1899.0,1901.0,True,7.0,2.0,33.7448229,-85.8810782,Alabama
MARCHVILLE,AL,Mobile,1890.0,1891.0,True,7.0,1.0,30.6488022,-88.0869439,Alabama
MARLIN,AL,Winston,1891.0,1893.0,True,7.0,2.0,34.03111,-87.60861,Alabama
MAROS,AL,Monroe,1901.0,1902.0,True,7.0,1.0,31.3060425,-87.5039796,Alabama
MARTINS STORE,AL,Morgan,1828.0,1836.0,True,7.0,8.0,34.365097,-86.9963972,Alabama
MASINGALE,AL,Etowah,1880.0,1884.0,True,7.0,4.0,33.9667648,-85.972193,Alabama
MASTERTON,AL,Lawrence,1905.0,1906.0,True,7.0,1.0,34.5387047,-87.2833533,Alabama
MAULLS,AL,Elmore,1898.0,1899.0,True,7.0,1.0,32.4993015,-86.402751,Alabama
MC ADING,AL,Talladega,1892.0,1896.0,True,7.0,4.0,33.5612173,-85.8310753,Alabama
MC DONALD,AL,Randolph,1840.0,1843.0,True,7.0,3.0,33.3090047,-85.484675,Alabama
MEAD,AL,Calhoun,1898.0,1900.0,True,7.0,2.0,33.6598243,-85.9777467,Alabama
MIDDLETOWN,AL,Butler,1829.0,1843.0,True,7.0,14.0,31.5776612,-86.5530226,Alabama
MILL GROVE,AL,Henry,1853.0,1869.0,False,7.0,16.0,31.4190609,-85.2568775,Alabama
MISSOURI,AL,Bullock,1837.0,1852.0,True,7.0,15.0,31.9476561,-85.7052243,Alabama
MITCHELL'S MILLL,AL,Elmore,1878.0,1881.0,True,7.0,3.0,32.4565255,-86.0507954,Alabama
MIXON,AL,Conecun,1888.0,1892.0,True,7.0,4.0,31.696546,-87.0047034,Alabama
MOBILE POINT,AL,Baldwin,1831.0,1835.0,True,7.0,4.0,30.2221485,-88.0283308,Alabama
MONA,AL,Cherokee,1898.0,1899.0,True,7.0,1.0,34.0250994,-85.6038504,Alabama
MONROE,AL,Morgan,1852.0,1857.0,True,7.0,5.0,34.5456482,-86.781389,Alabama
MONTEZUMA,AL,Covington,1826.0,1854.0,False,7.0,28.0,31.3223923,-86.5249594,Alabama
MORGANBURG,AL,Morgan,1878.0,1879.0,True,7.0,1.0,34.5231491,-86.9702859,Alabama
MORRISVILLE,AL,Calhoun,1855.0,1873.0,True,7.0,18.0,33.7267671,-85.957191,Alabama
MOSELEY'S GROVE,AL,Dallas,1850.0,1866.0,True,7.0,16.0,32.2173639,-87.196658,Alabama
MOUNT AIRY,AL,Talladega,1840.0,1849.0,True,7.0,9.0,33.4628857,-85.9669118,Alabama
MOUNT HICKORY,AL,Chambers,1836.0,1859.0,True,7.0,23.0,33.0356781,-85.4632841,Alabama
MOUNT HIGH,AL,Marshall,1853.0,1866.0,True,7.0,13.0,34.2943082,-86.2860986,Alabama
MOUNT ZION,AL,Jackson,1875.0,1876.0,True,7.0,1.0,34.5789747,-85.986644,Alabama
MUSH CREEK,AL,Dallas,1878.0,1884.0,True,7.0,6.0,32.2876459,-86.986941,Alabama
NARCISSUS,AL,Baldwin,1903.0,1904.0,True,7.0,1.0,30.4943615,-87.9277711,Alabama
NEW BETHEL,AL,Calhoun,1848.0,1867.0,False,7.0,19.0,33.8787115,-85.809133,Alabama
NEW HARMONY,AL,Chambers,1854.0,1867.0,True,7.0,13.0,32.7801291,-85.5299514,Alabama
NEW POTOSI,AL,Macon,1852.0,1866.0,False,7.0,14.0,32.4729162,-85.5652282,Alabama
NISBET,AL,Etowah,1892.0,1894.0,True,7.0,2.0,33.9528765,-85.9291363,Alabama
NOBORNE,AL,Mobile,1894.0,1896.0,True,7.0,2.0,30.69019,-88.1916699,Alabama
NORRIS,AL,Winston,1905.0,1905.0,True,7.0,0.0,34.03083,-87.605,Alabama
OAK GROVE,AL,Perry,1878.0,1883.0,True,7.0,5.0,32.5348558,-87.1205489,Alabama
OAKMULGA,AL,Perry,1857.0,1866.0,True,7.0,9.0,32.8045717,-87.030826,Alabama
OAKTUPPA,AL,Choctaw,1857.0,1866.0,True,7.0,9.0,31.9448733,-88.396137,Alabama
OLD TEXAS,AL,Monroe,1857.0,1866.0,True,7.0,9.0,31.769599,-87.0002605,Alabama
OLD TOWN,AL,Coffee,1841.0,1855.0,False,7.0,14.0,31.1948964,-87.1480292,Alabama
OTO,AL,Talladega,1870.0,1879.0,True,7.0,9.0,33.3034459,-86.0138572,Alabama
OWL,AL,Winston,1890.0,1892.0,True,7.0,2.0,34.28749,-87.25612,Alabama
PANOLA,AL,Crenshaw,1879.0,1883.0,True,7.0,4.0,31.9715384,-86.3888573,Alabama
PARK,AL,Barbour,1895.0,1898.0,True,7.0,3.0,31.6637769,-85.5066063,Alabama
PEACH GROVE,AL,Morgan,1832.0,1842.0,False,7.0,10.0,34.388983,-86.6666621,Alabama
PELHAM,AL,Choctaw,1855.0,1867.0,True,7.0,12.0,32.2795864,-88.120021,Alabama
PENNINGTON,AL,Talladega,1881.0,1884.0,True,7.0,3.0,33.3737214,-86.0902485,Alabama
PENOLA,AL,Sumter,1844.0,1853.0,True,7.0,9.0,32.9503821,-88.2699485,Alabama
PERDIDO,AL,Baldwin,1876.0,1878.0,True,7.0,2.0,31.00694,-87.6264224,Alabama
PERRY'S MILLS,AL,Montgomery,1871.0,1874.0,True,7.0,3.0,32.2912523,-86.1582966,Alabama
PIEDMONT SPRINGS,AL,Calhoun,1890.0,1893.0,True,7.0,3.0,33.9003789,-85.6710738,Alabama
PINE GROVE,AL,Pike,1854.0,1866.0,True,7.0,12.0,31.899591,-86.1185644,Alabama
PINETUCKY,AL,Randolph,1848.0,1857.0,True,7.0,9.0,33.4726111,-85.539122,Alabama
PITTSBORO,AL,Tallapoosa,1836.0,1837.0,True,7.0,1.0,32.9151252,-85.5999541,Alabama
POE,AL,Saint Clair,1881.0,1887.0,True,7.0,6.0,33.7550995,-86.0910839,Alabama
POLKVILLE,AL,Calhoun,1846.0,1855.0,True,7.0,9.0,33.7201005,-85.9652468,Alabama
POSEY,AL,Franklin,1890.0,1892.0,True,7.0,2.0,34.5564833,-87.9225366,Alabama
POSEY,AL,Lauderdale,1894.0,1895.0,True,7.0,1.0,34.9353618,-87.4486338,Alabama
POWELLS CROOSROADSS,AL,De Kalb,1898.0,1898.0,False,7.0,0.0,34.2864816,-85.7494111,Alabama
PROSPECT RIDGE,AL,Pike,1838.0,1848.0,True,7.0,10.0,31.9587639,-86.0055095,Alabama
PROVO,AL,Monroe,1898.0,1901.0,True,7.0,3.0,31.3959999,-87.4377645,Alabama
QUINN,AL,Choctaw,1881.0,1884.0,True,7.0,3.0,31.9504294,-88.1244588,Alabama
RAHATCHIE,AL,Talladega,1903.0,1904.0,True,7.0,1.0,33.2023374,-86.4083116,Alabama
RED CREEK,AL,Choctaw,1855.0,1867.0,True,7.0,12.0,31.7279362,-88.3819642,Alabama
REDMAN,AL,Jackson,1846.0,1864.0,False,7.0,18.0,34.660644,-86.3288745,Alabama
REX,AL,Coffee,1896.0,1898.0,True,7.0,2.0,31.3865584,-85.8038271,Alabama
RIDGEGROVE,AL,Lee,1898.0,1898.0,True,7.0,0.0,32.6579106,-85.518006,Alabama
RIVER HILL,AL,Jackson,1890.0,1891.0,True,7.0,1.0,34.7086945,-85.9285884,Alabama
ROCKY PLAINS,AL,Winston,1875.0,1880.0,True,7.0,5.0,34.081215,-87.4230709,Alabama
RYAN CREEK,AL,Cullman,1878.0,1880.0,True,7.0,2.0,33.9889927,-87.1013946,Alabama
SAINT PAUL,AL,Clarke,1849.0,1866.0,True,7.0,17.0,31.7543214,-87.6483301,Alabama
SAPP'S CROSS ROADS,AL,Blount,1850.0,1878.0,False,7.0,28.0,33.9153792,-86.8647205,Alabama
SARDIS,AL,Fayette,1885.0,1886.0,True,7.0,1.0,33.6956646,-87.7444604,Alabama
SCOTT'S MILL,AL,Jackson,1854.0,1859.0,True,7.0,5.0,34.6723069,-86.0341463,Alabama
SEATON,AL,Talladega,1876.0,1881.0,True,7.0,5.0,33.4170535,-85.9908013,Alabama
SHADY HILL,AL,Covington,1916.0,1916.0,True,7.0,0.0,31.1515645,-86.5385664,Alabama
SHAHAN,AL,Etowah,1882.0,1888.0,True,7.0,6.0,33.9742643,-86.1899766,Alabama
SHELBY COURT HOUSE,AL,Shelby,1822.0,1827.0,True,7.0,5.0,33.1209389,-86.584894,Alabama
SHORT CREEK,AL,Marshall,1853.0,1872.0,False,7.0,19.0,34.3259204,-86.4499822,Alabama
SLATERS LANDING,AL,Choctaw,1878.0,1880.0,True,7.0,2.0,31.9951505,-88.1041816,Alabama
SOUTH BUTLER,AL,Butler,1847.0,1877.0,False,7.0,30.0,31.5801606,-86.6819146,Alabama
STAGG,AL,Jefferson,1881.0,1883.0,True,7.0,2.0,33.5581621,-86.9986063,Alabama
STATESVILLE,AL,Autauga,1830.0,1831.0,True,7.0,1.0,32.4695795,-86.8305407,Alabama
STEEP CREEK,AL,Lowndes,1852.0,1867.0,True,7.0,15.0,32.153755,-86.4791391,Alabama
SUBLET,AL,Jackson,1894.0,1897.0,True,7.0,3.0,34.7117496,-85.8346968,Alabama
SUGAR CREEK,AL,Blount,1892.0,1893.0,True,7.0,1.0,33.9389883,-86.6799934,Alabama
SULPHUR SPRINGS,AL,Calhoun,1852.0,1866.0,False,7.0,14.0,33.6942677,-86.055527,Alabama
SUMMER HILL,AL,Dale,1857.0,1866.0,True,7.0,9.0,31.3493378,-85.7043803,Alabama
SYDNEY,AL,Marshall,1857.0,1867.0,True,7.0,10.0,34.2789829,-86.3658169,Alabama
TAPPAN,AL,Blount,1891.0,1895.0,True,7.0,4.0,34.1181521,-86.4866544,Alabama
TAYLOR'S,AL,Jefferson,1847.0,1866.0,True,7.0,19.0,33.6537135,-86.6583217,Alabama
TAYLORS STATION,AL,Perry,1876.0,1880.0,True,7.0,4.0,32.4404139,-87.4386111,Alabama
TEN ISLANDS,AL,Calhoun,1840.0,1874.0,False,7.0,34.0,33.8028768,-86.0366381,Alabama
THREE RUNS,AL,Butler,1852.0,1860.0,False,7.0,8.0,31.9070955,-86.4783041,Alabama
TRION,AL,Tuscaloosa,1849.0,1872.0,False,7.0,23.0,33.1742847,-87.2336092,Alabama
TRUSS,AL,Jefferson,1828.0,1868.0,False,7.0,40.0,33.6198251,-86.6088756,Alabama
UBY,AL,Winston,1893.0,1895.0,True,7.0,2.0,34.29389,-87.21306,Alabama
UCHEE SHOALS,AL,Russell,1837.0,1842.0,True,7.0,5.0,32.3159813,-85.0160422,Alabama
UPPER PEACH TREE,AL,Wilcox,1821.0,1853.0,True,7.0,32.0,32.0140121,-87.4786149,Alabama
VILLULA,AL,Russell,1847.0,1879.0,True,7.0,32.0,32.2659821,-85.1646583,Alabama
VINDALE,AL,Talladega,1901.0,1901.0,True,7.0,0.0,33.4173312,-85.9983015,Alabama
VIOLY,AL,Blount,1848.0,1874.0,False,7.0,26.0,33.8612104,-86.5580438,Alabama
WACOOCHEE,AL,Russell,1837.0,1861.0,True,7.0,24.0,32.2765386,-84.9540957,Alabama
WADE,AL,Fayette,1906.0,1907.0,True,7.0,1.0,33.817045,-87.6980672,Alabama
WALDROP'S MILLS,AL,Jefferson,1858.0,1872.0,True,7.0,14.0,33.4567754,-87.0172165,Alabama
WALKER,AL,Walker,1826.0,1842.0,True,7.0,16.0,33.7487162,-87.049999,Alabama
WAVELAND,AL,Lauderdale,1872.0,1874.0,True,7.0,2.0,34.9386964,-87.7714177,Alabama
WAVERLY,AL,Chambers,1850.0,1875.0,False,7.0,25.0,32.735408,-85.5791191,Alabama
WAXAHATCHIE,AL,Shelby,1836.0,1843.0,True,7.0,7.0,33.1028965,-86.7535975,Alabama
WEED,AL,Dale,1886.0,1895.0,True,7.0,9.0,31.6011274,-85.7170137,Alabama
WEEWOKAVILLE,AL,Talladega,1837.0,1871.0,False,7.0,34.0,33.2959458,-86.2402522,Alabama
WELLBORN,AL,Coffee,1846.0,1866.0,True,7.0,20.0,31.3387866,-85.051873,Alabama
WELTON,AL,Greene,1856.0,1861.0,True,7.0,5.0,32.7445768,-88.0377965,Alabama
WESSINGTON,AL,Chilton,1892.0,1893.0,True,7.0,1.0,33.0026219,-86.7777643,Alabama
WHITE BLUFF,AL,Dallas,1868.0,1875.0,True,7.0,7.0,32.2698624,-87.1819361,Alabama
WHITE WATER,AL,Pike,1844.0,1873.0,False,7.0,29.0,31.7057161,-85.892725,Alabama
WILKES,AL,Jefferson,1887.0,1889.0,True,7.0,2.0,33.4548302,-86.9299924,Alabama
WILLINGHAM,AL,Fayette,1884.0,1887.0,True,7.0,3.0,33.5653837,-87.6861179,Alabama
WINDHAM'S,AL,Pickens,1874.0,1880.0,True,7.0,6.0,33.0290153,-88.2339199,Alabama
WINSTON,AL,Winston,1887.0,1889.0,True,7.0,2.0,34.21444,-87.63057,Alabama
WOMACK'S,AL,Wilcox,1828.0,1848.0,True,7.0,20.0,31.9862584,-86.913038,Alabama
WOOD SHOP,AL,Dale,1843.0,1859.0,True,7.0,16.0,31.4590576,-85.6404932,Alabama
WOODSBORO,AL,Shelby,1838.0,1861.0,True,7.0,23.0,33.1612282,-86.8213771,Alabama
YOUNG'S CROSS ROADS,AL,Lauderdale,1830.0,1845.0,True,7.0,15.0,34.9284191,-87.8430862,Alabama
ZUNI,AL,Calhoun,1906.0,1907.0,True,7.0,1.0,33.8881567,-85.7277421,Alabama
ABBEY,AL,Franklin,1898.0,1902.0,True,6.0,4.0,34.5459268,-87.5689162,Alabama
ACHATES,AL,Talladega,1882.0,1894.0,False,6.0,12.0,33.2023374,-86.4083116,Alabama
ACTIVE,AL,Bibb,1899.0,1906.0,True,6.0,7.0,32.8679034,-86.9769358,Alabama
ADAMSBURG,AL,De Kalb,1902.0,1905.0,True,6.0,3.0,34.398978,-85.6721876,Alabama
ADELIA,AL,Calhoun,1882.0,1895.0,True,6.0,13.0,33.9112116,-85.7777436,Alabama
ALCO,AL,Escambia,1888.0,1897.0,True,6.0,9.0,31.1024001,-87.0905257,Alabama
ALLEN'S FACTORY,AL,Marion,1857.0,1887.0,False,6.0,30.0,34.2789862,-87.7214173,Alabama
ALMERIA,AL,Bullock,1900.0,1905.0,True,6.0,5.0,32.0265411,-85.8505066,Alabama
ANDEREW'S INSTITUTE,AL,De Kalb,1876.0,1895.0,True,6.0,19.0,34.3195361,-85.8694147,Alabama
ANDERTON,AL,Blount,1879.0,1890.0,True,6.0,11.0,33.9876866,-86.5823002,Alabama
ANDREW,AL,Autauga,1901.0,1904.0,True,6.0,3.0,32.5684662,-86.4641421,Alabama
ANTIOCH,AL,Lamar,1894.0,1898.0,True,6.0,4.0,33.8742662,-87.9572436,Alabama
ARCTIC,AL,Winston,1900.0,1905.0,True,6.0,5.0,34.2639883,-87.495577,Alabama
ARNOT,AL,Lauderdale,1902.0,1905.0,True,6.0,3.0,34.9192514,-87.5708587,Alabama
AUSTINVILLE,AL,Morgan,1903.0,1906.0,True,6.0,3.0,34.5748149,-87.0086207,Alabama
AYCOCK,AL,Chambers,1890.0,1893.0,True,6.0,3.0,32.9498465,-85.5855096,Alabama
BALLENGER,AL,Winston,1900.0,1903.0,True,6.0,3.0,34.0764928,-87.4708496,Alabama
BEARD,AL,Marshall,1905.0,1907.0,True,6.0,2.0,34.3892583,-86.3691513,Alabama
BEARD,AL,Pickens,1880.0,1898.0,True,6.0,18.0,33.4009453,-88.1197449,Alabama
BEAUMONT,AL,Monroe,1901.0,1906.0,True,6.0,5.0,31.4626641,-87.4297097,Alabama
BECK,AL,Covington,1898.0,1904.0,True,6.0,6.0,31.2562831,-86.5846812,Alabama
BEDA,AL,Covington,1886.0,1897.0,True,6.0,11.0,31.0510121,-86.5827318,Alabama
BEEHIVE,AL,Lee,1896.0,1902.0,True,6.0,6.0,32.5537468,-85.578007,Alabama
BELL,AL,Madison,1888.0,1895.0,True,6.0,7.0,34.5287023,-86.503322,Alabama
BERRYVALE,AL,Pike,1890.0,1890.0,True,6.0,0.0,31.8862644,-86.1157906,Alabama
BETHEA,AL,Escambia,1903.0,1907.0,True,6.0,4.0,31.0412638,-86.9308775,Alabama
BIBB MILLS STATION,AL,Bibb,1871.0,1878.0,True,6.0,7.0,32.9473457,-86.9102677,Alabama
BIBB SPRINGS,AL,Bibb,1878.0,1888.0,True,6.0,10.0,33.1637291,-87.1491627,Alabama
BIBBVILLE,AL,Bibb,1872.0,1893.0,True,6.0,21.0,33.1934506,-87.1763856,Alabama
BICKFORD,AL,Winston/Walker,1899.0,1903.0,True,6.0,4.0,34.00028,-87.41417,Alabama
ORO,AZ,Greenlee,1880.0,1882.0,True,9.0,2.0,33.09451,-109.3059,Arizona
ESPERANZA,AZ,Pima,1884.0,1884.0,True,9.0,0.0,32.1556,-110.9362,Arizona
FORDVILLE,AZ,Pinal,1880.0,1880.0,True,9.0,0.0,32.70451,-110.6943,Arizona
GILA CITY,AZ,Yuma,1858.0,1863.0,True,9.0,5.0,32.67449,-114.2949,Arizona
TIP TOP MINE,AZ,Yavapai,1879.0,1879.0,True,9.0,0.0,34.05226,-112.2482,Arizona
QUEEN,AZ,Pinal,1881.0,1881.0,True,9.0,0.0,33.297,-111.2148,Arizona
RED ROCK,AZ,Yavapai,1879.0,1881.0,True,9.0,2.0,34.82557,-111.8165,Arizona
MCMILLONVILLE,AZ,Gila,1877.0,1878.0,True,9.0,1.0,33.55728,-110.6798,Arizona
MAXEY,AZ,Graham,1886.0,1887.0,True,9.0,1.0,33.037,-109.9654,Arizona
EMPIRE RANCH,AZ,Pima,1879.0,1880.0,True,9.0,1.0,31.78536,-110.6423,Arizona
TULLY,AZ,Pima,1880.0,1880.0,True,9.0,0.0,32.24229,-111.0013,Arizona
EMPIRE,AZ,Pima,1880.0,1881.0,True,9.0,1.0,31.7812,-110.7056,Arizona
CASTLE DOME,AZ,Yuma,1875.0,1876.0,True,9.0,1.0,32.96504,-114.4636,Arizona
MARYVILLE,AZ,Maricopa,1873.0,1874.0,True,9.0,1.0,33.50054,-112.173,Arizona
CASA BLANCO,AZ,Santa Cruz,1882.0,1882.0,True,9.0,0.0,31.60009,-110.7173,Arizona
EAST PHOENIX,AZ,Maricopa,1871.0,1876.0,True,9.0,5.0,33.44838,-112.074,Arizona
CASA BLANCA,AZ,Pinal,1860.0,1861.0,True,9.0,1.0,33.12033,-111.8882,Arizona
CABABI,AZ,Pima,1883.0,1884.0,True,9.0,1.0,32.07702,-111.8954,Arizona
PLOMOSA,AZ,La Paz,1880.0,1881.0,False,9.0,1.0,33.63419,-114.118,Arizona
PURDY,AZ,Greenlee,1883.0,1883.0,True,9.0,0.0,32.72479,-109.1001,Arizona
MOUNT HOPE,AZ,Yavapai,1876.0,1879.0,True,9.0,3.0,35.14667,-113.3277,Arizona
PIMA AGENCY,AZ,Pinal,1875.0,1876.0,False,9.0,1.0,33.07672,-111.7393,Arizona
COLORADO CITY,AZ,Yuma,1857.0,1858.0,True,9.0,1.0,32.72532,-114.6244,Arizona
YORKS,AZ,Greenlee,1882.0,1883.0,True,9.0,1.0,32.89368,-109.2028,Arizona
WILLIAMSONS VALLEY,AZ,Yavapai,1873.0,1881.0,False,9.0,8.0,34.80391,-112.8791,Arizona
WHEATFIELD,AZ,Gila,1880.0,1881.0,True,9.0,1.0,33.46819,-110.8161,Arizona
COPPEROPOLIS,AZ,Pinal,1884.0,1885.0,True,9.0,1.0,32.53589,-112.1351,Arizona
APACHE,AZ,Navajo,1873.0,1875.0,True,9.0,2.0,35.39957,-110.3214,Arizona
NEEDLES,AZ,Mohave,1883.0,1883.0,True,9.0,0.0,34.71859,-114.4843,Arizona
MANLYVILLE,AZ,Pinal,1881.0,1888.0,True,9.0,7.0,32.71507,-110.8748,Arizona
PIMA VILLAGE,AZ,Pinal,1866.0,1870.0,True,9.0,4.0,33.12033,-111.8882,Arizona
PIMO VILLAGE,AZ,Pinal,1859.0,1866.0,True,9.0,7.0,33.12033,-111.8882,Arizona
ARIZONA,AZ,Yuma,1858.0,1863.0,True,9.0,5.0,32.72532,-114.6244,Arizona
CLIP,AZ,La Paz,1884.0,1888.0,True,8.0,4.0,33.18642,-114.6716,Arizona
SAN JOSE,AZ,Graham,1904.0,1904.0,True,8.0,0.0,32.82007,-109.592,Arizona
DOANVILLE,AZ,Yuma,1889.0,1891.0,True,8.0,2.0,32.90894,-113.4813,Arizona
SAHUARITO,AZ,Pima,1882.0,1886.0,False,8.0,4.0,31.95758,-110.9556,Arizona
MONTEZUMA,AZ,Yavapai,1892.0,1893.0,True,8.0,1.0,34.68254,-112.0014,Arizona
MARICOPA WELLS,AZ,Pinal,1865.0,1879.0,True,8.0,14.0,33.16199,-112.084,Arizona
POWELL,AZ,Mohave,1883.0,1886.0,True,8.0,3.0,34.73723,-114.3769,Arizona
NORTON'S,AZ,Yuma,1883.0,1888.0,True,8.0,5.0,32.8106,-113.7988,Arizona
RYAN,AZ,Coconino,1902.0,1903.0,True,8.0,1.0,36.68832,-112.3493,Arizona
CHALLENDER,AZ,Coconino,1893.0,1897.0,False,8.0,4.0,35.23446,-112.0252,Arizona
CHALENDER,AZ,Coconino,1883.0,1884.0,True,8.0,1.0,35.23446,-112.0252,Arizona
CASTLE DOME LANDING,AZ,Yuma,1878.0,1884.0,True,8.0,6.0,32.96504,-114.4636,Arizona
PINE SPRINGS,AZ,Yavapai,1879.0,1882.0,True,8.0,3.0,34.76752,-111.8935,Arizona
NEPHI,AZ,Maricopa,1889.0,1892.0,True,8.0,3.0,33.41671,-111.8924,Arizona
PICKET POST,AZ,Pinal,1878.0,1879.0,True,8.0,1.0,33.27978,-111.1515,Arizona
SAN PEDRO,AZ,Cochise,1872.0,1880.0,False,8.0,8.0,31.49454,-110.1173,Arizona
MERIDIAN,AZ,Maricopa,1894.0,1895.0,True,8.0,1.0,33.34355,-111.5932,Arizona
CENTENNIAL,AZ,La Paz,1881.0,1886.0,True,8.0,5.0,33.56948,-113.3521,Arizona
COTTONWOOD,AZ,Pinal,1881.0,1884.0,True,8.0,3.0,33.07395,-111.7007,Arizona
NOONVILLE,AZ,Santa Cruz,1888.0,1890.0,True,8.0,2.0,31.38899,-111.0923,Arizona
ZONIA,AZ,Yavapai,1900.0,1900.0,True,8.0,0.0,34.30114,-112.6332,Arizona
TANQUE VERDE,AZ,Pima,1888.0,1892.0,True,8.0,4.0,32.25174,-110.7373,Arizona
GOLD BASIN,AZ,Mohave,1890.0,1894.0,True,8.0,4.0,35.81943,-114.1502,Arizona
GREENLAW,AZ,Coconino,1903.0,1904.0,True,8.0,1.0,35.2189,-111.5961,Arizona
GUNSIGHT,AZ,Pima,1892.0,1896.0,True,8.0,4.0,32.22228,-112.6882,Arizona
HARDYVILLE,AZ,Mohave,1865.0,1883.0,False,8.0,18.0,35.045,-114.6216,Arizona
TRES ALAMOS,AZ,Cochise,1874.0,1886.0,True,8.0,12.0,32.06175,-110.3445,Arizona
TOTAL WRECK,AZ,Pima,1881.0,1890.0,False,8.0,9.0,31.89564,-110.5929,Arizona
HASSAYAMPA,AZ,Yavapai,1881.0,1884.0,True,8.0,3.0,34.53614,-112.4918,Arizona
DRIPPING SPRINGS,AZ,Gila,1886.0,1890.0,True,8.0,4.0,33.14589,-110.859,Arizona
HAYDEN'S FERRY,AZ,Maricopa,1872.0,1879.0,True,8.0,7.0,33.41477,-111.9093,Arizona
SUNSET,AZ,Navajo,1876.0,1887.0,True,8.0,11.0,35.04446,-110.6535,Arizona
HECLA,AZ,Yavapai,1893.0,1894.0,True,8.0,1.0,34.53808,-112.1215,Arizona
WEAVER,AZ,Yavapai,1899.0,1900.0,True,8.0,1.0,34.16253,-112.8507,Arizona
SULTAN,AZ,Yavapai,1903.0,1904.0,True,8.0,1.0,34.44752,-113.1474,Arizona
TYSONS,AZ,La Paz,1893.0,1895.0,True,8.0,2.0,33.66391,-114.2299,Arizona
GRAHAM,AZ,Graham,1882.0,1885.0,True,8.0,3.0,32.87506,-109.7406,Arizona
ALTAMONT,AZ,Maricopa,1895.0,1898.0,True,8.0,3.0,33.37754,-112.4868,Arizona
BRAYTON,AZ,La Paz,1906.0,1907.0,True,8.0,1.0,33.93252,-114.0058,Arizona
ISAACSON,AZ,Santa Cruz,1882.0,1883.0,True,8.0,1.0,31.34038,-110.9343,Arizona
ALPHA,AZ,Maricopa,1894.0,1898.0,True,8.0,4.0,32.95699,-113.3063,Arizona
BRIGHAM CITY,AZ,Navajo,1878.0,1882.0,True,8.0,4.0,35.04169,-110.6507,Arizona
WHITTUM,AZ,Greenlee,1894.0,1898.0,True,8.0,4.0,33.61006,-109.1067,Arizona
DUNLAP,AZ,Graham,1883.0,1892.0,True,8.0,9.0,32.95729,-110.3551,Arizona
SANFORD,AZ,Pinal,1871.0,1876.0,True,8.0,5.0,33.01284,-111.4421,Arizona
SANDY,AZ,Mohave,1894.0,1900.0,False,8.0,6.0,34.686,-113.581,Arizona
ORIZABA,AZ,Pinal,1888.0,1893.0,True,8.0,5.0,32.6195,-111.9124,Arizona
GALEYVILLE,AZ,Cochise,1881.0,1882.0,True,8.0,1.0,31.95037,-109.2184,Arizona
CALDERWOOD,AZ,Maricopa,1892.0,1894.0,True,8.0,2.0,33.63893,-112.3118,Arizona
GOLDFIELD,AZ,Pinal,1894.0,1898.0,False,7.0,4.0,33.45833,-111.4875,Arizona
ORAIBA,AZ,Navajo,1900.0,1901.0,True,7.0,1.0,35.87528,-110.6204,Arizona
FORT LOWELL,AZ,Pima,1911.0,1912.0,True,7.0,1.0,32.26008,-110.874,Arizona
FORTUNA,AZ,Yuma,1896.0,1904.0,True,7.0,8.0,32.6906,-114.453,Arizona
MADDOX,AZ,Navajo,1914.0,1916.0,True,7.0,2.0,35.38529,-110.3207,Arizona
GRANITE,AZ,Yavapai,1903.0,1904.0,True,7.0,1.0,34.69558,-112.4093,Arizona
CORK,AZ,Graham,1916.0,1918.0,True,7.0,2.0,32.95701,-109.9187,Arizona
HARRISBURG,AZ,La Paz,1887.0,1906.0,True,7.0,19.0,33.7344,-113.5419,Arizona
HAYDEN,AZ,Maricopa,1881.0,1886.0,True,7.0,5.0,33.42227,-111.8226,Arizona
CRAIG,AZ,Apache,1911.0,1912.0,True,7.0,1.0,34.37976,-109.3973,Arizona
MELLEN,AZ,Mohave,1903.0,1909.0,True,7.0,6.0,34.71859,-114.4843,Arizona
HUBBARD,AZ,Graham,1902.0,1912.0,True,7.0,10.0,32.89618,-109.7754,Arizona
IRON KING,AZ,Yavapai,1907.0,1912.0,True,7.0,5.0,34.50086,-112.2574,Arizona
MASCOT,AZ,Cochise,1916.0,1918.0,True,7.0,2.0,32.20869,-109.5901,Arizona
LA PAZ,AZ,La Paz,1865.0,1875.0,False,7.0,10.0,33.67919,-114.4263,Arizona
LAND,AZ,Cochise,1911.0,1913.0,True,7.0,2.0,31.85481,-110.2292,Arizona
MANZORA,AZ,Cochise,1916.0,1918.0,True,7.0,2.0,32.0448,-109.9709,Arizona
LISCUM,AZ,Maricopa,1901.0,1903.0,True,7.0,2.0,33.88476,-111.9513,Arizona
PRATT,AZ,Maricopa,1890.0,1895.0,True,7.0,5.0,33.83865,-112.2668,Arizona
COLDWATER,AZ,Maricopa,1897.0,1905.0,False,7.0,8.0,33.43949,-112.3415,Arizona
BENTON,AZ,Greenlee,1903.0,1907.0,True,7.0,4.0,33.41617,-109.1881,Arizona
SAN XAVIER,AZ,Pima,1915.0,1917.0,True,7.0,2.0,31.97369,-111.0951,Arizona
SANCHEZ,AZ,Graham,1901.0,1904.0,True,7.0,3.0,32.86951,-109.5429,Arizona
SANTA CRUZ,AZ,Pinal,1910.0,1911.0,True,7.0,1.0,33.2281,-112.1665,Arizona
STOCKTON,AZ,Mohave,1888.0,1892.0,True,7.0,4.0,35.30944,-114.09,Arizona
STORM,AZ,Yavapai,1894.0,1901.0,True,7.0,7.0,34.44225,-112.4007,Arizona
STOVAL,AZ,Yuma,1914.0,1916.0,True,7.0,2.0,32.76505,-113.6221,Arizona
BLAISDELL,AZ,Yuma,1898.0,1905.0,True,7.0,7.0,32.71255,-114.4266,Arizona
BLACK DIAMOND,AZ,Cochise,1902.0,1908.0,True,7.0,6.0,31.8437,-109.9067,Arizona
SYCAMORE,AZ,Yavapai,1911.0,1912.0,True,7.0,1.0,34.86391,-112.0999,Arizona
SALERO,AZ,Santa Cruz,1884.0,1890.0,True,7.0,6.0,31.58065,-110.859,Arizona
TONTO,AZ,Gila,1884.0,1902.0,True,7.0,18.0,33.64172,-111.116,Arizona
AUBREY,AZ,Mohave,1866.0,1886.0,False,7.0,20.0,34.30002,-114.0774,Arizona
ARMER,AZ,Gila,1884.0,1895.0,True,7.0,11.0,33.86366,-110.9968,Arizona
ARIZONA CITY,AZ,Yuma,1869.0,1873.0,True,7.0,4.0,32.72532,-114.6244,Arizona
VANAR,AZ,Cochise,1915.0,1916.0,True,7.0,1.0,32.24119,-109.0951,Arizona
VULTURE,AZ,Maricopa,1880.0,1897.0,False,7.0,17.0,33.82142,-112.8352,Arizona
ANTELOPE VALLEY,AZ,Yavapai,1875.0,1890.0,False,7.0,15.0,34.1653,-112.7293,Arizona
ZENOS,AZ,Maricopa,1886.0,1889.0,True,7.0,3.0,33.42227,-111.8226,Arizona
SAN MIGUEL,AZ,Pima,1917.0,1918.0,True,7.0,1.0,31.61286,-111.7821,Arizona
BUENOS AYRES,AZ,Pima,1892.0,1903.0,True,7.0,11.0,31.5212,-111.6573,Arizona
SAINT JOHN,AZ,Apache,1880.0,1880.0,True,7.0,0.0,34.50587,-109.3609,Arizona
CEDAR,AZ,Mohave,1895.0,1911.0,True,7.0,16.0,34.77862,-113.7944,Arizona
ORO,AZ,Yavapai,1904.0,1907.0,True,7.0,3.0,34.17086,-112.3479,Arizona
CLIFFS,AZ,Coconino,1907.0,1916.0,True,7.0,9.0,35.22168,-111.5763,Arizona
OXBOW,AZ,Gila,1895.0,1908.0,True,7.0,13.0,34.16837,-111.3546,Arizona
CIENEGA,AZ,Yavapai,1877.0,1892.0,False,7.0,15.0,34.97752,-112.8438,Arizona
PLANET,AZ,La Paz,1902.0,1910.0,True,7.0,8.0,34.24752,-113.9649,Arizona
CERRO COLORADO,AZ,Pima,1879.0,1911.0,False,7.0,32.0,31.65898,-111.2726,Arizona
RYE,AZ,Gila,1884.0,1907.0,True,7.0,23.0,34.10948,-111.3537,Arizona
REEF,AZ,Cochise,1901.0,1904.0,True,7.0,3.0,31.42704,-110.2884,Arizona
REYMERT,AZ,Pinal,1890.0,1898.0,True,7.0,8.0,33.22978,-111.2093,Arizona
GILLETT,AZ,Yavapai,1878.0,1887.0,True,7.0,9.0,34.01892,-112.1635,Arizona
RICHVILLE,AZ,Apache,1892.0,1907.0,False,7.0,15.0,34.28615,-109.3554,Arizona
RIVERSIDE,AZ,Pinal,1877.0,1900.0,True,7.0,23.0,33.10534,-110.9579,Arizona
STANTON,AZ,Yavapai,1875.0,1905.0,False,6.0,30.0,34.1653,-112.7293,Arizona
PLACERITA,AZ,Yavapai,1896.0,1910.0,True,6.0,14.0,34.26919,-112.646,Arizona
MAINE,AZ,Coconino,1907.0,1911.0,True,6.0,4.0,35.25307,-111.9385,Arizona
GISELA,AZ,Gila,1895.0,1911.0,False,6.0,16.0,34.10171,-111.2799,Arizona
WENDENDALE,AZ,La Paz,1905.0,1909.0,True,6.0,4.0,33.82253,-113.5416,Arizona
SAN RAFAEL,AZ,Santa Cruz,1888.0,1917.0,False,6.0,29.0,31.45343,-110.5959,Arizona
LOWELL,AZ,Cochise,1904.0,1907.0,True,6.0,3.0,31.42788,-109.8937,Arizona
VEKOL,AZ,Pinal,1888.0,1909.0,False,6.0,21.0,32.60367,-112.1412,Arizona
RUCKER,AZ,Cochise,1891.0,1906.0,False,6.0,15.0,31.73415,-109.4886,Arizona
PIONEER,AZ,Gila,1882.0,1885.0,True,6.0,3.0,33.2345,-110.8379,Arizona
MOWRY,AZ,Santa Cruz,1905.0,1913.0,True,6.0,8.0,31.42843,-110.7037,Arizona
TRUXTON,AZ,Mohave,1901.0,1910.0,True,6.0,9.0,35.48499,-113.5636,Arizona
TROY,AZ,Pinal,1901.0,1910.0,True,6.0,9.0,33.14367,-110.8993,Arizona
KOFA,AZ,Yuma,1900.0,1928.0,False,6.0,28.0,32.88199,-113.6466,Arizona
TIP TOP,AZ,Yavapai,1880.0,1895.0,True,6.0,15.0,34.05087,-112.2468,Arizona
POLARIS,AZ,Yuma,1909.0,1914.0,True,6.0,5.0,33.29698,-113.9699,Arizona
LEHI,AZ,Maricopa,1884.0,1904.0,True,6.0,20.0,33.45893,-111.8135,Arizona
SUMMERLAND,AZ,Pinal,1914.0,1918.0,True,6.0,4.0,32.88255,-111.9621,Arizona
OLD GLORY,AZ,Santa Cruz,1895.0,1915.0,False,6.0,20.0,31.43426,-111.2537,Arizona
STRAWBERRY,AZ,Gila,1886.0,1904.0,True,6.0,18.0,34.40781,-111.4935,Arizona
LANGHORNE,AZ,Pima,1908.0,1912.0,True,6.0,4.0,32.24229,-110.8318,Arizona
SENATOR,AZ,Yavapai,1915.0,1918.0,True,6.0,3.0,34.41614,-112.4118,Arizona
RICHINBAR,AZ,Yavapai,1896.0,1912.0,False,6.0,16.0,34.20114,-112.1027,Arizona
MINNEHAHA,AZ,Yavapai,1880.0,1910.0,False,6.0,30.0,34.16336,-112.4074,Arizona
LEES FERRY,AZ,Coconino,1879.0,1923.0,False,6.0,44.0,36.81554,-111.6377,Arizona
BRIGGS,AZ,Yavapai,1890.0,1907.0,True,6.0,17.0,34.06086,-112.4757,Arizona
CHILITO,AZ,Gila,1913.0,1918.0,True,6.0,5.0,33.06673,-110.7971,Arizona
ALHAMBRA,AZ,Maricopa,1893.0,1918.0,False,6.0,25.0,33.49838,-112.1343,Arizona
CYCLOPTIC,AZ,Mohave,1914.0,1917.0,True,6.0,3.0,35.78277,-114.2461,Arizona
CRITTENDEN,AZ,Santa Cruz,1873.0,1901.0,False,6.0,28.0,31.57704,-110.729,Arizona
BUENA,AZ,Cochise,1913.0,1919.0,True,6.0,6.0,31.5551,-110.257,Arizona
ARIZOLA,AZ,Pinal,1892.0,1904.0,True,6.0,12.0,32.85117,-111.7143,Arizona
CALABASAS,AZ,Santa Cruz,1866.0,1913.0,False,6.0,47.0,31.46732,-110.9754,Arizona
COCHRAN,AZ,Pinal,1905.0,1915.0,True,6.0,10.0,33.10951,-111.1498,Arizona
FORREST,AZ,Cochise,1914.0,1917.0,True,6.0,3.0,31.36677,-109.7276,Arizona
CHRYSTOVAL,AZ,Yuma,1888.0,1905.0,True,6.0,17.0,32.76505,-113.6221,Arizona
CONTENTION,AZ,Cochise,1880.0,1888.0,True,6.0,8.0,31.76898,-110.202,Arizona
CHILDS,AZ,Yavapai,1912.0,1915.0,True,6.0,3.0,34.45058,-111.734,Arizona
CERBAT,AZ,Mohave,1872.0,1912.0,False,6.0,40.0,35.30305,-114.1397,Arizona
CHARLESTON,AZ,Cochise,1879.0,1888.0,True,6.0,9.0,31.6315,-110.1742,Arizona
BERNARDINA,AZ,Cochise,1915.0,1917.0,True,6.0,2.0,31.51065,-109.3128,Arizona
BROWNELL,AZ,Pima,1903.0,1911.0,True,6.0,8.0,32.25007,-112.1424,Arizona
CARRISO,AZ,Apache,1914.0,1920.0,True,6.0,6.0,36.92111,-109.0857,Arizona
LAKE PLEASANT,AZ,Maricopa,1926.0,1928.0,True,5.0,2.0,33.8667,-112.2674,Arizona
WELDON,AZ,Pima,1904.0,1918.0,True,5.0,14.0,32.0634,-112.1507,Arizona
LIGHT,AZ,Cochise,1910.0,1917.0,True,5.0,7.0,31.9062,-109.5767,Arizona
DUDLEYVILLE,AZ,Pinal,1881.0,1911.0,True,5.0,30.0,32.91731,-110.7242,Arizona
SHULTZ,AZ,Pinal,1894.0,1922.0,False,5.0,28.0,32.72257,-110.6407,Arizona
WALNUT GROVE,AZ,Yavapai,1874.0,1915.0,False,5.0,41.0,34.28308,-112.5485,Arizona
SHELDON,AZ,Greenlee,1908.0,1919.0,True,5.0,11.0,32.81479,-109.1723,Arizona
MANILA,AZ,Navajo,1912.0,1918.0,True,5.0,6.0,34.96502,-110.4135,Arizona
EL CAPITAN,AZ,Gila,1919.0,1924.0,True,5.0,5.0,33.20506,-110.809,Arizona
ELLISON,AZ,Gila,1897.0,1907.0,True,5.0,10.0,34.14115,-111.0782,Arizona
APACHE PASS,AZ,Cochise,1866.0,1880.0,True,5.0,14.0,32.1498,-109.4526,Arizona
VERDE,AZ,Yavapai,1878.0,1920.0,False,5.0,42.0,34.56364,-111.8543,Arizona
DATE CREEK,AZ,Yavapai,1872.0,1927.0,False,5.0,55.0,34.22725,-113.0291,Arizona
RIORDAN,AZ,Coconino,1918.0,1925.0,True,5.0,7.0,35.19251,-111.7371,Arizona
SASCO,AZ,Pinal,1907.0,1919.0,False,5.0,12.0,32.53507,-111.4396,Arizona
VALVERDE,AZ,Yavapai,1899.0,1905.0,True,5.0,6.0,34.50086,-112.2374,Arizona
CASTLE BUTTE,AZ,Navajo,1916.0,1921.0,True,5.0,5.0,35.30474,-110.3487,Arizona
OWENS,AZ,Mohave,1899.0,1914.0,True,5.0,15.0,34.70559,-113.6152,Arizona
CANON DIABLO,AZ,Coconino,1886.0,1918.0,False,5.0,32.0,35.16279,-111.1176,Arizona
SALTRIVER,AZ,Maricopa,1912.0,1916.0,True,5.0,4.0,33.46671,-111.864,Arizona
AVRA,AZ,Pima,1932.0,1933.0,True,5.0,1.0,32.32785,-111.2182,Arizona
SAN BERNARDINO,AZ,Cochise,1906.0,1918.0,True,5.0,12.0,31.33649,-109.2795,Arizona
SAN FERNANDO,AZ,Pima,1919.0,1926.0,False,5.0,7.0,31.49014,-111.5408,Arizona
AULTMAN,AZ,Yavapai,1885.0,1923.0,False,5.0,38.0,34.61641,-111.9143,Arizona
SUNRISE SPRINGS,AZ,Apache,1913.0,1921.0,True,5.0,8.0,35.60362,-109.7454,Arizona
PINAL,AZ,Pinal,1879.0,1891.0,True,5.0,12.0,33.27978,-111.1515,Arizona
CAMP HUACHUCA,AZ,Cochise,1879.0,1891.0,True,5.0,12.0,31.56332,-110.3343,Arizona
WHITE HILLS,AZ,Mohave,1892.0,1914.0,True,5.0,22.0,35.73804,-114.3975,Arizona
OCOTILLO,AZ,Yavapai,1916.0,1925.0,True,5.0,9.0,34.36364,-112.2018,Arizona
CHAPARAL,AZ,Yavapai,1894.0,1917.0,True,5.0,23.0,34.47503,-112.3174,Arizona
CORONADO,AZ,Greenlee,1912.0,1919.0,True,5.0,7.0,33.11673,-109.3854,Arizona
VALLEY HEIGHTS,AZ,Maricopa,1914.0,1919.0,True,5.0,5.0,33.64689,-112.0985,Arizona
WHIPPLE,AZ,Yavapai,1887.0,1898.0,True,5.0,11.0,34.55669,-112.4496,Arizona
ROCK POINT,AZ,Apache,1926.0,1930.0,True,5.0,4.0,36.71806,-109.6259,Arizona
HARSHAW,AZ,Santa Cruz,1880.0,1903.0,False,5.0,23.0,31.46732,-110.707,Arizona
WICKENBURGH,AZ,Maricopa,1878.0,1894.0,True,5.0,16.0,33.96102,-112.773,Arizona
FORT GRANT,AZ,Graham,1879.0,1905.0,True,5.0,26.0,32.62285,-109.9459,Arizona
YORK,AZ,Greenlee,1904.0,1920.0,False,5.0,16.0,32.89368,-109.2028,Arizona
JAYNES,AZ,Pima,1922.0,1924.0,True,5.0,2.0,32.29591,-111.029,Arizona
WRIGHTSTOWN,AZ,Pima,1914.0,1921.0,True,5.0,7.0,32.24205,-110.8011,Arizona
ALGODON,AZ,Graham,1915.0,1921.0,True,5.0,6.0,32.7584,-109.7162,Arizona
FORT BOWIE,AZ,Cochise,1880.0,1894.0,True,5.0,14.0,32.1498,-109.4526,Arizona
HARQUA HALA,AZ,La Paz,1891.0,1918.0,False,5.0,27.0,33.73559,-113.5313,Arizona
HARQUA,AZ,Maricopa,1927.0,1932.0,True,5.0,5.0,33.2431,-112.9991,Arizona
FOREPAUGH,AZ,Maricopa,1910.0,1916.0,True,5.0,6.0,33.97142,-113.0463,Arizona
GOLCONDA,AZ,Mohave,1909.0,1918.0,True,5.0,9.0,35.32416,-114.1286,Arizona
WOLF HOLE,AZ,Mohave,1918.0,1927.0,True,5.0,9.0,36.76276,-113.5494,Arizona
FAIRVIEW,AZ,Graham,1909.0,1917.0,True,5.0,8.0,32.91673,-109.8581,Arizona
JUNIPER,AZ,Yavapai,1883.0,1910.0,True,5.0,27.0,34.16559,-112.3707,Arizona
STARK,AZ,Cochise,1914.0,1921.0,True,5.0,7.0,31.37149,-110.0367,Arizona
ALAMO,AZ,La Paz,1911.0,1918.0,True,5.0,7.0,33.40559,-113.8888,Arizona
HOOPER,AZ,Yavapai,1899.0,1916.0,True,5.0,17.0,34.26614,-112.3829,Arizona
ORO BLANCO,AZ,Santa Cruz,1879.0,1915.0,False,4.0,36.0,31.49593,-111.2798,Arizona
COLUMBIA,AZ,Yavapai,1894.0,1915.0,True,4.0,21.0,34.03364,-112.3104,Arizona
SILVER KING,AZ,PINAL,1877.0,1912.0,True,4.0,35.0,33.33033,-111.0893,Arizona
TUBA,AZ,Coconino,1894.0,1917.0,True,4.0,23.0,36.13499,-111.2399,Arizona
OLD TRAILS,AZ,Mohave,1916.0,1925.0,True,4.0,9.0,35.01056,-114.388,Arizona
CAMP GRANT,AZ,Graham,1875.0,1879.0,True,4.0,4.0,32.62285,-109.9459,Arizona
WOOLAROC,AZ,Greenlee,1927.0,1930.0,True,4.0,3.0,33.33589,-109.4937,Arizona
CONTINENTAL,AZ,Pima,1917.0,1929.0,True,4.0,12.0,31.85231,-110.9748,Arizona
KENILWORTH,AZ,Pinal,1891.0,1895.0,True,4.0,4.0,32.97451,-111.4821,Arizona
CALVA,AZ,Graham,1938.0,1941.0,True,4.0,3.0,33.18061,-110.1865,Arizona
ARTESIA,AZ,Graham,1912.0,1926.0,True,4.0,14.0,32.69812,-109.7076,Arizona
OWL HEAD,AZ,Pinal,1930.0,1933.0,True,4.0,3.0,33.70005,-111.1007,Arizona
PEEPLES VALLEY,AZ,Yavapai,1928.0,1933.0,True,4.0,5.0,34.26891,-112.7271,Arizona
PALO ALTO,AZ,Pima,1925.0,1928.0,True,4.0,3.0,31.88258,-111.3959,Arizona
HAMBURG,AZ,Cochise,1906.0,1929.0,False,4.0,23.0,31.42454,-110.3256,Arizona
SUNSET,AZ,Graham,1917.0,1932.0,True,4.0,15.0,32.52396,-110.2073,Arizona
TEES TO,AZ,Navajo,1930.0,1934.0,True,4.0,4.0,35.45168,-110.3643,Arizona
RAINBOW VALLEY,AZ,Maricopa,1931.0,1933.0,True,4.0,2.0,33.23199,-112.3871,Arizona
RUCKER CANYON,AZ,Cochise,1918.0,1929.0,True,4.0,11.0,31.75343,-109.3576,Arizona
BARKERVILLE,AZ,Pinal,1924.0,1933.0,True,4.0,9.0,32.83174,-110.9454,Arizona
YOUNGSBERG,AZ,Pinal,1920.0,1926.0,True,4.0,6.0,33.45894,-111.4874,Arizona
PRICE,AZ,Pinal,1909.0,1923.0,True,4.0,14.0,33.09562,-111.2323,Arizona
FORT MCDOWELL,AZ,Maricopa,1923.0,1928.0,True,4.0,5.0,33.63671,-111.6746,Arizona
TOLTEC,AZ,Pinal,1910.0,1928.0,False,4.0,18.0,32.79228,-111.6148,Arizona
CHIRICAHUA,AZ,Cochise,1907.0,1921.0,True,4.0,14.0,31.59232,-109.2406,Arizona
PINTO,AZ,Apache,1902.0,1922.0,True,4.0,20.0,35.08225,-109.6307,Arizona
CHRYSOTILE,AZ,Gila,1916.0,1933.0,True,4.0,17.0,33.74033,-110.5668,Arizona
CANILLE,AZ,Santa Cruz,1904.0,1924.0,True,4.0,20.0,31.54287,-110.5145,Arizona
NA-AH-TEE CANYON,AZ,Navajo,1916.0,1932.0,True,4.0,16.0,35.49029,-110.1446,Arizona
GUTHRIE,AZ,Greenlee,1901.0,1922.0,True,4.0,21.0,32.94618,-109.2531,Arizona
PARKER CANYON,AZ,Santa Cruz,1928.0,1929.0,True,4.0,1.0,31.37232,-110.5234,Arizona
PARKER CANON,AZ,Santa Cruz,1912.0,1927.0,True,4.0,15.0,31.37232,-110.5234,Arizona
NADABURG,AZ,Maricopa,1920.0,1929.0,True,4.0,9.0,33.77642,-112.5285,Arizona
NORTON,AZ,Yuma,1891.0,1925.0,False,4.0,34.0,32.8106,-113.7988,Arizona
DUQUESNE,AZ,Santa Cruz,1904.0,1920.0,True,4.0,16.0,31.37093,-110.6854,Arizona
MINERAL PARK,AZ,Mohave,1872.0,1912.0,False,4.0,40.0,35.37083,-114.153,Arizona
HUNT,AZ,Apache,1902.0,1927.0,False,4.0,25.0,34.61003,-109.6276,Arizona
BETATAKIN,AZ,Navajo,1932.0,1934.0,True,4.0,2.0,36.68389,-110.5357,Arizona
SWANSEA,AZ,La Paz,1909.0,1924.0,True,4.0,15.0,34.17002,-113.846,Arizona
INDIAN OASIS,AZ,Pima,1909.0,1919.0,True,4.0,10.0,31.91202,-111.8812,Arizona
BLALACK,AZ,Yuma,1927.0,1933.0,False,4.0,6.0,32.69921,-114.513,Arizona
LAGUNA,AZ,Yuma,1909.0,1929.0,False,4.0,20.0,32.81893,-114.4855,Arizona
WILCOX,AZ,Cochise,1880.0,1889.0,True,4.0,9.0,32.25285,-109.832,Arizona
MESCAL,AZ,Cochise,1913.0,1931.0,False,4.0,18.0,31.99008,-110.4354,Arizona
SANTAN,AZ,Pinal,1921.0,1932.0,False,4.0,11.0,33.17589,-111.7993,Arizona
SILVER CREEK,AZ,Navajo,1905.0,1929.0,False,4.0,24.0,34.34004,-109.9496,Arizona
HELVETIA,AZ,Pima,1899.0,1921.0,True,4.0,22.0,31.85786,-110.7887,Arizona
SUMMERHAVEN,AZ,Pima,1924.0,1929.0,True,4.0,5.0,32.43869,-110.7595,Arizona
ALLANTOWN,AZ,Apache,1924.0,1930.0,True,4.0,6.0,35.29197,-109.1584,Arizona
KATHERINE,AZ,Mohave,1922.0,1929.0,False,4.0,7.0,35.22222,-114.5619,Arizona
BRYCE,AZ,Graham,1891.0,1922.0,True,4.0,31.0,32.92895,-109.8279,Arizona
DUGAS,AZ,Yavapai,1926.0,1938.0,True,3.0,12.0,34.36197,-111.9785,Arizona
SIGNAL,AZ,Mohave,1877.0,1932.0,False,3.0,55.0,34.47418,-113.6338,Arizona
SHUNGOPAVY,AZ,Navajo,1934.0,1942.0,True,3.0,8.0,35.81806,-110.5346,Arizona
LEWIS SPRINGS,AZ,Cochise,1905.0,1933.0,True,3.0,28.0,31.58121,-110.142,Arizona
CHIMOPOVY,AZ,Navajo,1926.0,1934.0,False,3.0,8.0,35.80556,-110.5279,Arizona
BLACKWATER,AZ,Pinal,1907.0,1931.0,True,3.0,24.0,33.03117,-111.5826,Arizona
GOODWIN,AZ,Yavapai,1894.0,1943.0,False,3.0,49.0,34.35586,-112.3799,Arizona
CANON,AZ,Yavapai,1894.0,1938.0,False,3.0,44.0,34.07087,-112.1507,Arizona
SUNNYSIDE,AZ,Cochise,1914.0,1934.0,True,3.0,20.0,31.43399,-110.4051,Arizona
JEDDITO,AZ,Navajo,1921.0,1934.0,True,3.0,13.0,35.77445,-110.1368,Arizona
CASABEL,AZ,Cochise,1916.0,1936.0,True,3.0,20.0,32.29146,-110.3795,Arizona
WIDE RUIN,AZ,Apache,1934.0,1938.0,True,3.0,4.0,35.41946,-109.4965,Arizona
JOHNSON,AZ,Cochise,1900.0,1929.0,True,3.0,29.0,32.10313,-110.0662,Arizona
JOKAKE,AZ,Maricopa,1936.0,1944.0,True,3.0,8.0,33.50977,-111.9799,Arizona
ZENIFF,AZ,Navajo,1922.0,1933.0,True,3.0,11.0,34.57726,-110.3782,Arizona
CEDAR SPRINGS,AZ,Navajo,1910.0,1930.0,True,3.0,20.0,35.45168,-110.3643,Arizona
CEDAR CREEK,AZ,Gila,1946.0,1949.0,True,3.0,3.0,33.8956,-110.1737,Arizona
RICE,AZ,Gila,1909.0,1930.0,True,3.0,21.0,33.3558,-110.453,Arizona
ALTO,AZ,Santa Cruz,1912.0,1933.0,True,3.0,21.0,31.60454,-110.8781,Arizona
BELLEVUE,AZ,Gila,1906.0,1927.0,True,3.0,21.0,33.332,-110.9434,Arizona
KLAGETOH,AZ,Apache,1934.0,1944.0,True,3.0,10.0,35.50196,-109.5282,Arizona
DRAKE,AZ,Yavapai,1936.0,1939.0,True,3.0,3.0,34.98141,-112.3763,Arizona
MADERA CANYON,AZ,Santa Cruz,1929.0,1942.0,True,3.0,13.0,31.72509,-110.8801,Arizona
STANDARD,AZ,Navajo,1924.0,1938.0,True,3.0,14.0,34.26532,-110.2359,Arizona
MCDOWELL,AZ,Maricopa,1869.0,1917.0,False,3.0,48.0,33.46598,-112.0244,Arizona
CORNFIELDS,AZ,Apache,1910.0,1934.0,False,3.0,24.0,35.65223,-109.6793,Arizona
COPPER HILL,AZ,Gila,1908.0,1933.0,True,3.0,25.0,33.43033,-110.7646,Arizona
TUSAYAN,AZ,Coconino,1934.0,1937.0,True,3.0,3.0,35.9736,-112.1266,Arizona
STODDARD,AZ,Yavapai,1882.0,1927.0,True,3.0,45.0,34.41753,-112.1879,Arizona
WINTERSBURG,AZ,Maricopa,1931.0,1941.0,True,3.0,10.0,33.42448,-112.868,Arizona
ESTRELLA HILL,AZ,Maricopa,1919.0,1932.0,True,3.0,13.0,33.00116,-112.4174,Arizona
OLBERG,AZ,Pinal,1927.0,1938.0,True,3.0,11.0,33.09228,-111.6862,Arizona
FLOY,AZ,Apache,1920.0,1933.0,True,3.0,13.0,34.33726,-109.7279,Arizona
SIMMONS,AZ,Yavapai,1881.0,1930.0,True,3.0,49.0,34.81474,-112.6341,Arizona
ESPERO,AZ,Greenlee,1919.0,1934.0,True,3.0,15.0,33.74033,-109.327,Arizona
ARAVAIPA,AZ,Graham,1892.0,1933.0,True,3.0,41.0,32.95729,-110.3551,Arizona
ESTRELLA,AZ,Maricopa,1933.0,1944.0,True,3.0,11.0,33.00116,-112.4174,Arizona
VENEZIA,AZ,Yavapai,1916.0,1935.0,True,3.0,19.0,34.39308,-112.4168,Arizona
DILKON,AZ,Navajo,1920.0,1943.0,True,3.0,23.0,35.38529,-110.3207,Arizona
CANE BEDS,AZ,Mohave,1917.0,1945.0,True,3.0,28.0,36.94637,-112.8944,Arizona
STONEMAN LAKE,AZ,Coconino,1924.0,1939.0,True,3.0,15.0,34.78141,-111.5126,Arizona
DON LUIS,AZ,Cochise,1903.0,1933.0,True,3.0,30.0,31.4026,-109.9167,Arizona
GROOM CREEK,AZ,Yavapai,1901.0,1942.0,False,3.0,41.0,34.47558,-112.4313,Arizona
PERKINSVILLE,AZ,Yavapai,1925.0,1939.0,False,3.0,14.0,34.90169,-112.1913,Arizona
TWIN BUTTES,AZ,Pima,1906.0,1930.0,True,3.0,24.0,31.90258,-111.0606,Arizona
CIBOLA,AZ,La Paz,1903.0,1933.0,True,3.0,30.0,33.31642,-114.665,Arizona
SAINT JOSEPH,AZ,Navajo,1878.0,1924.0,True,3.0,46.0,34.95586,-110.334,Arizona
SOMBRERO BUTTE,AZ,Pinal,1919.0,1945.0,True,2.0,26.0,32.72618,-110.4823,Arizona
RUBY,AZ,Santa Cruz,1912.0,1941.0,False,2.0,29.0,31.4612,-111.2376,Arizona
SUNFLOWER,AZ,Maricopa,1943.0,1949.0,True,2.0,6.0,33.86421,-111.4676,Arizona
SILVERBELL,AZ,Pima,1904.0,1934.0,False,2.0,30.0,32.3834,-111.5007,Arizona
CHRISTMAS,AZ,Gila,1905.0,1935.0,False,2.0,30.0,33.06229,-110.7426,Arizona
CASTLE BUTTE,AZ,Navajo,1947.0,1956.0,True,2.0,9.0,35.30474,-110.3487,Arizona
KOMATKE,AZ,Maricopa,1915.0,1944.0,True,2.0,29.0,33.27671,-112.1668,Arizona
COURTLAND,AZ,Cochise,1909.0,1942.0,True,2.0,33.0,31.77009,-109.8087,Arizona
DAVIS DAM,AZ,Mohave,1950.0,1954.0,True,2.0,4.0,35.18,-114.5664,Arizona
WALKER,AZ,Yavapai,1879.0,1940.0,False,2.0,61.0,34.45586,-112.3782,Arizona
LITCHTON,AZ,Maricopa,1919.0,1923.0,True,2.0,4.0,33.49337,-112.3579,Arizona
APACHE,AZ,Cochise,1908.0,1943.0,True,2.0,35.0,31.69038,-109.1323,Arizona
LIBERTY,AZ,Maricopa,1901.0,1942.0,True,2.0,41.0,33.37754,-112.4868,Arizona
KEAMS CANON,AZ,Navajo,1883.0,1926.0,True,2.0,43.0,35.81251,-110.1951,Arizona
TUBAC,AZ,Santa Cruz,1859.0,1942.0,False,2.0,83.0,31.61259,-111.0459,Arizona
HORN,AZ,Yuma,1954.0,1960.0,True,2.0,6.0,32.94477,-113.5032,Arizona
HILLTOP,AZ,Cochise,1920.0,1945.0,True,2.0,25.0,31.99453,-109.2776,Arizona
WINONA,AZ,Coconino,1924.0,1943.0,True,2.0,19.0,35.20501,-111.4082,Arizona
GREATERVILLE,AZ,Pima,1879.0,1946.0,False,2.0,67.0,31.76398,-110.7501,Arizona
GOLDROAD,AZ,Mohave,1906.0,1942.0,False,2.0,36.0,35.04667,-114.3797,Arizona
GLEESON,AZ,Cochise,1890.0,1939.0,True,2.0,49.0,31.73398,-109.8298,Arizona
CORDES,AZ,Yavapai,1886.0,1944.0,True,2.0,58.0,34.30336,-112.1668,Arizona
METCALF,AZ,Greenlee,1899.0,1936.0,True,2.0,37.0,33.11146,-109.3735,Arizona
OCTAVE,AZ,Yavapai,1900.0,1943.0,True,2.0,43.0,34.14169,-112.6899,Arizona
PARADISE,AZ,Cochise,1901.0,1943.0,True,2.0,42.0,31.93481,-109.219,Arizona
REDINGTON,AZ,Pima,1879.0,1940.0,False,2.0,61.0,32.42757,-110.4931,Arizona
QUIJOTOA,AZ,Pima,1883.0,1942.0,False,2.0,59.0,32.12729,-112.1382,Arizona
PUNTENNEY,AZ,Yavapai,1905.0,1932.0,True,2.0,27.0,34.97521,-112.3883,Arizona
CHERRY,AZ,Yavapai,1884.0,1942.0,True,2.0,58.0,34.58808,-112.0418,Arizona
BANNON,AZ,Apache,1920.0,1942.0,True,2.0,22.0,34.25393,-109.7426,Arizona
GARDEN CANYON,AZ,Cochise,1919.0,1937.0,True,2.0,18.0,31.55676,-110.2951,Arizona
TOREVA,AZ,Navajo,1900.0,1937.0,True,2.0,37.0,35.80417,-110.4971,Arizona
COPPER CREEK,AZ,Pinal,1907.0,1942.0,False,2.0,35.0,32.7509,-110.4765,Arizona
CONSTELLATION,AZ,Yavapai,1901.0,1939.0,True,2.0,38.0,34.06336,-112.5824,Arizona
PALOMAS,AZ,Yuma,1891.0,1938.0,True,2.0,47.0,32.90894,-113.4813,Arizona
AVONDALE,AZ,Maricopa,1911.0,1975.0,True,1.0,64.0,33.43484,-112.3544,Arizona
BELLEMONT,AZ,Coconino,1887.0,1957.0,False,1.0,70.0,35.23807,-111.8335,Arizona
TIGER,AZ,Pinal,1939.0,1954.0,True,1.0,15.0,32.70785,-110.6823,Arizona
VALENTINE,AZ,Mohave,1910.0,1975.0,True,1.0,65.0,35.40833,-113.6491,Arizona
YAVA,AZ,Yavapai,1916.0,1954.0,False,1.0,38.0,34.47197,-112.8905,Arizona
ASHURST,AZ,Graham,1919.0,1955.0,True,1.0,36.0,32.98423,-109.9323,Arizona
BONITA,AZ,Graham,1884.0,1955.0,False,1.0,71.0,32.58979,-109.9692,Arizona
ARIPINE,AZ,Navajo,1922.0,1963.0,True,1.0,41.0,34.37393,-110.4029,Arizona
BLACK CANYON,AZ,Yavapai,1955.0,1965.0,True,1.0,10.0,34.07087,-112.1507,Arizona
AZTEC,AZ,Yuma,1889.0,1960.0,False,1.0,71.0,32.82449,-113.4499,Arizona
AMADO,AZ,Santa Cruz,1920.0,1958.0,True,1.0,38.0,31.70787,-111.0645,Arizona
VICKSBURG,AZ,La Paz,1906.0,1960.0,True,1.0,54.0,33.74447,-113.7522,Arizona
TUWEEP,AZ,Mohave,1929.0,1950.0,True,1.0,21.0,36.41581,-113.0666,Arizona
WAGONER,AZ,Yavapai,1893.0,1969.0,True,1.0,76.0,34.21364,-112.5357,Arizona
WARREN,AZ,Cochise,1907.0,1968.0,True,1.0,61.0,31.41355,-109.8773,Arizona
TORTILLA FLAT,AZ,Maricopa,1928.0,1981.0,True,1.0,53.0,33.52644,-111.3899,Arizona
GERONIMO,AZ,Graham,1896.0,1956.0,False,1.0,60.0,33.07673,-110.0331,Arizona
SONORA,AZ,Pinal,1912.0,1965.0,True,1.0,53.0,33.16534,-110.9959,Arizona
DOS CABEZOS,AZ,Cochise,1879.0,1948.0,True,1.0,69.0,32.17536,-109.6134,Arizona
KOHLS RANCH,AZ,Gila,1939.0,1967.0,True,1.0,28.0,34.32531,-111.0943,Arizona
EDEN,AZ,Graham,1892.0,1983.0,True,1.0,91.0,32.96228,-109.8942,Arizona
AGUA CALIENTE,AZ,Maricopa,1888.0,1960.0,True,1.0,72.0,32.98532,-113.3244,Arizona
LINDEN,AZ,Navajo,1891.0,1958.0,False,1.0,67.0,34.28504,-110.1571,Arizona
LUKACHUKAI,AZ,Apache,1916.0,1973.0,True,1.0,57.0,36.41318,-109.2513,Arizona
LUPTON,AZ,Apache,1917.0,1966.0,True,1.0,49.0,35.35391,-109.0537,Arizona
DOS CABEZAS,AZ,Cochise,1949.0,1960.0,True,1.0,11.0,32.17536,-109.6134,Arizona
KELVIN,AZ,Pinal,1900.0,1956.0,True,1.0,56.0,33.11145,-110.9734,Arizona
DOME,AZ,Yuma,1892.0,1962.0,False,1.0,70.0,32.75532,-114.3622,Arizona
MARBLE CANYON,AZ,Coconino,1927.0,1965.0,False,1.0,38.0,36.81554,-111.6377,Arizona
MARINETTE,AZ,Maricopa,1912.0,1957.0,True,1.0,45.0,33.59754,-112.2718,Arizona
DATELAND,AZ,Yuma,1942.0,1984.0,True,1.0,42.0,32.79644,-113.541,Arizona
MAVERICK,AZ,Apache,1948.0,1967.0,True,1.0,19.0,33.74283,-109.5473,Arizona
CROWN KING,AZ,Yavapai,1888.0,1963.0,True,1.0,75.0,34.20558,-112.3387,Arizona
KLONDYKE,AZ,Graham,1907.0,1955.0,True,1.0,48.0,32.83534,-110.3323,Arizona
JACOB LAKE,AZ,Coconino,1933.0,1955.0,True,1.0,22.0,36.71332,-112.2163,Arizona
SOLOMONSVILLE,AZ,Graham,1878.0,1950.0,True,1.0,72.0,32.81257,-109.634,Arizona
HAPPY JACK,AZ,Coconino,1950.0,1966.0,True,1.0,16.0,34.74335,-111.4074,Arizona
FRY,AZ,Cochise,1937.0,1956.0,True,1.0,19.0,31.55676,-110.2951,Arizona
GLENBAR,AZ,Graham,1917.0,1956.0,True,1.0,39.0,32.91673,-109.8581,Arizona
FRANKLIN,AZ,Greenlee,1905.0,1958.0,True,1.0,53.0,32.67757,-109.0792,Arizona
GOODYEAR,AZ,Maricopa,1919.0,1975.0,False,1.0,56.0,33.43857,-112.3914,Arizona
FORT HUACHUCA,AZ,Cochise,1891.0,1974.0,True,1.0,83.0,31.54875,-110.3765,Arizona
HACKBERRY,AZ,Mohave,1878.0,1962.0,True,1.0,84.0,35.36833,-113.7108,Arizona
FLORENCE JUNCTION,AZ,Pinal,1934.0,1966.0,True,1.0,32.0,33.2595,-111.3371,Arizona
EMERY PARK,AZ,Pima,1928.0,1952.0,True,1.0,24.0,32.14036,-110.962,Arizona
HAYDEN JUNCTION,AZ,Pinal,1913.0,1956.0,False,1.0,43.0,33.00979,-110.8154,Arizona
FAIRBANK,AZ,Cochise,1883.0,1981.0,True,1.0,98.0,31.72315,-110.1884,Arizona
HILLSIDE,AZ,Yavapai,1888.0,1963.0,False,1.0,75.0,34.41836,-112.9171,Arizona
INDIAN WELLS,AZ,Navajo,1910.0,1965.0,True,1.0,55.0,35.40557,-110.0848,Arizona
INSPIRATION,AZ,Gila,1917.0,1983.0,True,1.0,66.0,33.41283,-110.8837,Arizona
IRON SPRINGS,AZ,Yavapai,1900.0,1966.0,True,1.0,66.0,34.5853,-112.5732,Arizona
MOBILE,AZ,Maricopa,1925.0,1963.0,True,1.0,38.0,33.05533,-112.2718,Arizona
MOCCASIN,AZ,Mohave,1909.0,1963.0,True,1.0,54.0,36.90943,-112.7588,Arizona
MOHAWK,AZ,Yuma,1890.0,1958.0,False,1.0,68.0,32.72671,-113.7552,Arizona
CAMP WOOD,AZ,Yavapai,1926.0,1962.0,True,1.0,36.0,34.80058,-112.8794,Arizona
RAY,AZ,Pinal,1899.0,1966.0,False,1.0,67.0,33.18339,-110.9976,Arizona
CATALINA,AZ,Pima,1917.0,1971.0,True,1.0,54.0,32.49869,-110.9266,Arizona
CASTLE HOT SPRINGS,AZ,Yavapai,1936.0,1966.0,True,1.0,30.0,33.98337,-112.3604,Arizona
ROCK SPRINGS,AZ,Yavapai,1938.0,1955.0,True,1.0,17.0,34.04892,-112.1485,Arizona
ROLL,AZ,Yuma,1926.0,1985.0,True,1.0,59.0,32.75171,-113.9891,Arizona
ROWOOD,AZ,Pima,1918.0,1955.0,True,1.0,37.0,32.36839,-112.846,Arizona
CACTUS,AZ,Maricopa,1918.0,1963.0,True,1.0,45.0,33.6258,-112.019,Arizona
MORMON LAKE,AZ,Coconino,1925.0,1967.0,True,1.0,42.0,34.90835,-111.4632,Arizona
BUMBLE BEE,AZ,Yavapai,1879.0,1972.0,False,1.0,93.0,34.20086,-112.1529,Arizona
SAWMILL,AZ,Apache,1952.0,1964.0,True,1.0,12.0,35.90057,-109.1654,Arizona
SENTINEL,AZ,Maricopa,1880.0,1960.0,True,1.0,80.0,32.8581,-113.2132,Arizona
SHORT CREEK,AZ,Mohave,1914.0,1960.0,True,1.0,46.0,36.99026,-112.9758,Arizona
SHUMWAY,AZ,Navajo,1893.0,1956.0,True,1.0,63.0,34.40615,-110.0729,Arizona
SILVER BELL,AZ,Pima,1953.0,1984.0,True,1.0,31.0,32.38451,-111.5021,Arizona
RANDOLPH,AZ,Pinal,1925.0,1983.0,True,1.0,58.0,32.91701,-111.5148,Arizona
CHANDLER HEIGHTS,AZ,Maricopa,1938.0,1983.0,True,1.0,45.0,33.24482,-111.6385,Arizona
POSTON,AZ,La Paz,1949.0,1960.0,True,1.0,11.0,33.99057,-114.3963,Arizona
PORTAL,AZ,Cochise,1905.0,1964.0,False,1.0,59.0,31.9137,-109.1414,Arizona
CIBECUE,AZ,Navajo,1910.0,1960.0,False,1.0,50.0,34.04477,-110.4854,Arizona
CLEATOR,AZ,Yavapai,1925.0,1954.0,True,1.0,29.0,34.27864,-112.2329,Arizona
PAUL SPUR,AZ,Cochise,1930.0,1958.0,True,1.0,28.0,31.36621,-109.7345,Arizona
PARKS,AZ,Coconino,1914.0,1957.0,True,1.0,43.0,35.26057,-111.9488,Arizona
PANTANO,AZ,Pima,1880.0,1952.0,False,1.0,72.0,31.99953,-110.5801,Arizona
CLEMENCEAU,AZ,Yavapai,1920.0,1954.0,True,1.0,34.0,34.73197,-112.0265,Arizona
CONGRESS JUNCTION,AZ,Yavapai,1906.0,1938.0,True,1.0,32.0,34.16253,-112.8507,Arizona
ORAIBI,AZ,Navajo,1901.0,1982.0,True,1.0,81.0,35.875,-110.6185,Arizona
NORTH RIM,AZ,Coconino,1947.0,1955.0,True,1.0,8.0,36.21054,-112.0613,Arizona
COOLIDGE DAM,AZ,Gila,1928.0,1956.0,True,1.0,28.0,33.18201,-110.5265,Arizona
NELSON,AZ,Yavapai,1904.0,1954.0,True,1.0,50.0,35.51416,-113.3202,Arizona
NAVAJO,AZ,Apache,1883.0,1975.0,False,1.0,92.0,35.12419,-109.5382,Arizona
MOUNT TRUMBULL,AZ,Mohave,1920.0,1954.0,True,1.0,34.0,36.4122,-113.1758,Arizona
ADAMANA,AZ,Apache,1896.0,1969.0,True,1.0,73.0,34.97669,-109.8223,Arizona
BAYOU METRE,AR,Pulaski,1835.0,1836.0,True,9.0,1.0,34.8803607,-92.1087507,Arkansas
BETHELL,AR,Sebastian,1880.0,1880.0,True,9.0,0.0,35.0264799,-94.2399257,Arkansas
BLANSET,AR,Benton,1881.0,1881.0,True,9.0,0.0,36.4484053,-93.9740892,Arkansas
BLOOMINGTON,AR,Van Buren,1840.0,1842.0,True,9.0,2.0,35.5300777,-92.3634893,Arkansas
BOSTON,AR,Franklin,1843.0,1844.0,True,9.0,1.0,35.6761372,-93.8497039,Arkansas
BRUSH CREEK,AR,Washington,1840.0,1841.0,True,9.0,1.0,36.1841053,-93.9606894,Arkansas
CENTRE,AR,Prairie,1858.0,1860.0,True,9.0,2.0,34.8446417,-91.6437678,Arkansas
CHALYBEATE SPRINGS,AR,Columbia,1860.0,1860.0,True,9.0,0.0,33.0437212,-93.0834716,Arkansas
CHICKASAW CROSSING,AR,Woodruff,1848.0,1850.0,True,9.0,2.0,35.2824147,-91.3668074,Arkansas
CONWAY COURT HOUSE,AR,Conway,1826.0,1826.0,True,9.0,0.0,35.2622207,-92.7013072,Arkansas
COSSITAT,AR,Sevier,1828.0,1834.0,True,9.0,6.0,34.1487181,-94.2338076,Arkansas
COTTON WOOD POINT,AR,Mississippi,1858.0,1858.0,True,9.0,0.0,35.9197946,-90.1406497,Arkansas
COTTONWOOD,AR,Jefferson,1849.0,1849.0,True,9.0,0.0,34.29989,-91.910333,Arkansas
COVE CREEK,AR,Washington,1844.0,1848.0,True,9.0,4.0,35.8124225,-94.3062608,Arkansas
CRITTENDEN COURT HOUSE,AR,Crittenden,1826.0,1827.0,True,9.0,1.0,35.2442546,-90.4556579,Arkansas
CROSS HOLLOWS,AR,Benton,1843.0,1845.0,True,9.0,2.0,36.2784093,-94.1132584,Arkansas
CROW CRIEK,AR,Saint Francis,1835.0,1837.0,True,9.0,2.0,35.0125916,-90.7364991,Arkansas
DAVIDSONVILLE,AR,Randolph,1817.0,1829.0,True,9.0,12.0,36.1542356,-91.0556796,Arkansas
DE BASTROP,AR,Ashley,1842.0,1851.0,True,9.0,9.0,33.1134999,-91.5294572,Arkansas
DEARMOND'S MILLS,AR,Drew,1857.0,1860.0,True,9.0,3.0,33.4228923,-91.5829019,Arkansas
FOURCHE,AR,Pulaski,1856.0,1859.0,True,9.0,3.0,34.7145367,-92.2351486,Arkansas
FRANKFORT,AR,White,1837.0,1838.0,True,9.0,1.0,35.2530416,-91.7434326,Arkansas
GARRETTON,AR,Johnson,1842.0,1843.0,True,9.0,1.0,35.4056393,-93.3596253,Arkansas
GUM POND,AR,Arkansas,1876.0,1876.0,False,9.0,0.0,34.523702,-91.5631804,Arkansas
HARRISON,AR,Bradley,1841.0,1843.0,True,9.0,2.0,33.6259358,-92.1673581,Arkansas
HECHT CITY,AR,Clay,1873.0,1873.0,True,9.0,0.0,36.4184408,-90.5818019,Arkansas
HOGG'S STORE,AR,Union,1847.0,1847.0,True,9.0,0.0,33.2729055,-92.827384,Arkansas
HOPEFIELD,AR,Crittenden,1825.0,1826.0,True,9.0,1.0,35.1553677,-90.0748139,Arkansas
HOUSEVILLE,AR,Faulkner,1877.0,1877.0,True,9.0,0.0,35.2264728,-92.1240374,Arkansas
JOHNSON COURT HOUSE,AR,Johnson,1837.0,1841.0,True,9.0,4.0,35.5584093,-93.4512877,Arkansas
JONES,AR,Izard,1881.0,1881.0,True,9.0,0.0,36.0945075,-91.9184758,Arkansas
LA GREW SPRINGS,AR,Arkansas,1848.0,1853.0,True,9.0,5.0,34.2078793,-91.2117839,Arkansas
LAKE ENTERPRISE,AR,Ashley,1856.0,1860.0,True,9.0,4.0,33.1189716,-91.5479856,Arkansas
LAKE PORT,AR,Chicot,1830.0,1839.0,False,9.0,9.0,33.2251194,-91.1267752,Arkansas
LIBERTY,AR,Carroll,1833.0,1834.0,True,9.0,1.0,36.2617278,-93.4468801,Arkansas
LIBERTY,AR,Pope,1840.0,1842.0,True,9.0,2.0,35.503967,-93.053656,Arkansas
LOGAN,AR,Johnson,1832.0,1836.0,True,9.0,4.0,35.554521,-93.6135154,Arkansas
LOGANS STORE,AR,Pope,1839.0,1842.0,True,9.0,3.0,35.4025908,-93.1202687,Arkansas
LUCAS,AR,Crittenden,1838.0,1839.0,True,9.0,1.0,34.9192552,-90.3380334,Arkansas
LUNA,AR,Chicot,1859.0,1859.0,True,9.0,0.0,33.3831715,-91.2051115,Arkansas
MAGNESS,AR,Lonoke,1884.0,1884.0,True,9.0,0.0,35.0407462,-92.0677741,Arkansas
MARKS HILL,AR,Washington,1840.0,1841.0,True,9.0,1.0,36.0380353,-94.3406629,Arkansas
MEEKS,AR,Union,1856.0,1860.0,True,9.0,4.0,33.257621,-92.5193096,Arkansas
MINE CREEK,AR,Howard,1848.0,1856.0,True,9.0,8.0,33.9452005,-93.846763,Arkansas
MISSOURI,AR,Clark,1846.0,1847.0,True,9.0,1.0,33.8917707,-93.1335028,Arkansas
MONROVIA,AR,Yell,1837.0,1842.0,True,9.0,5.0,35.0545133,-93.3893212,Arkansas
MONTGOMERY,AR,Montgomery,1848.0,1849.0,True,9.0,1.0,34.5598636,-93.6339224,Arkansas
MOONEY,AR,Phillips,1850.0,1851.0,True,9.0,1.0,34.1921398,-90.9708289,Arkansas
MOUNTAIN,AR,Washington,1833.0,1839.0,True,9.0,6.0,35.9017475,-94.2722695,Arkansas
MUD CREEK,AR,Randolph,1838.0,1842.0,True,9.0,4.0,36.4545008,-91.0012298,Arkansas
MULBERRY,AR,Franklin,1846.0,1846.0,True,9.0,0.0,35.542619,-93.981497,Arkansas
NEW HOPE,AR,Izard,1874.0,1875.0,True,9.0,1.0,36.2145354,-91.9198748,Arkansas
OAK GROVE,AR,Crawford,1844.0,1848.0,True,9.0,4.0,35.4212003,-94.2943776,Arkansas
OAK GROVE,AR,Dallas,1856.0,1857.0,True,9.0,1.0,33.8712091,-92.7076547,Arkansas
OAKWOOD,AR,Drew,1880.0,1881.0,True,9.0,1.0,33.5751098,-91.8009638,Arkansas
OLIVE HILL,AR,Saline,1877.0,1878.0,True,9.0,1.0,34.6173154,-92.3643202,Arkansas
OUITA,AR,Pope,1876.0,1877.0,True,9.0,1.0,35.3028618,-93.1704532,Arkansas
PATON VALLEY,AR,Scott,1838.0,1843.0,True,9.0,5.0,34.897566,-94.0926631,Arkansas
PLEASANT RIDGE,AR,Cleveland,1872.0,1873.0,True,9.0,1.0,34.0359268,-92.0501344,Arkansas
POKE CREEK,AR,Independence,1820.0,1824.0,True,9.0,4.0,35.7708985,-91.6499186,Arkansas
PRAIRIE CREEK,AR,Yell,1849.0,1852.0,True,9.0,3.0,35.0895339,-93.3654614,Arkansas
RED COLONY,AR,Sevier,1860.0,1860.0,True,9.0,0.0,33.9387269,-94.1749202,Arkansas
RED OAK,AR,Lonoke,1853.0,1858.0,True,9.0,5.0,34.9128598,-92.0020815,Arkansas
RICH WOODS,AR,Stone,1837.0,1837.0,True,9.0,0.0,35.826464,-92.1718198,Arkansas
ROCKROE,AR,Monroe,1838.0,1839.0,True,9.0,1.0,34.6931517,-91.313737,Arkansas
SAINT MARYS,AR,Jefferson,1839.0,1843.0,True,9.0,4.0,34.3245351,-91.9426316,Arkansas
SALADORE,AR,Independence,1842.0,1843.0,True,9.0,1.0,35.6919904,-91.5966778,Arkansas
SEVIERVILLE,AR,Madison,1837.0,1840.0,True,9.0,3.0,36.0861871,-93.7413032,Arkansas
SPIKES,AR,Randolph,1882.0,1882.0,True,9.0,0.0,36.3995018,-91.0112296,Arkansas
SULPHUR SPRINGS,AR,Pope,1848.0,1851.0,True,9.0,3.0,35.4275742,-92.8737724,Arkansas
SWEET HOME,AR,Sevier,1872.0,1873.0,True,9.0,1.0,34.0398302,-94.3113088,Arkansas
TATES BLUFF,AR,Ouachita,1855.0,1856.0,True,9.0,1.0,33.7989946,-92.9009982,Arkansas
TITSWORTH,AR,Washington,1849.0,1853.0,True,9.0,4.0,36.0264678,-94.0082547,Arkansas
VINE PRAIRIE,AR,Crawford,1876.0,1877.0,True,9.0,1.0,35.4890887,-94.1010788,Arkansas
WARM SPRINGS,AR,Garland,1829.0,1831.0,True,9.0,2.0,34.5037004,-93.0551795,Arkansas
WASHINGTON,AR,Washington,1819.0,1829.0,True,9.0,10.0,36.0694051,-94.1592727,Arkansas
WILLIAMS,AR,Bradley,1884.0,1884.0,True,9.0,0.0,33.6642689,-92.3090302,Arkansas
WINFIELD,AR,Scott,1843.0,1846.0,True,9.0,3.0,34.897566,-94.0926631,Arkansas
WOODRUFF,AR,Pulaski,1850.0,1850.0,True,9.0,0.0,34.7458997,-92.307178,Arkansas
YORK,AR,Clark,1880.0,1880.0,True,9.0,0.0,33.8878253,-93.2048174,Arkansas
ANVIL,AR,Clark,1850.0,1860.0,True,8.0,10.0,34.1039873,-93.246841,Arkansas
ARKANSAS,AR,Arkansas,1817.0,1831.0,True,8.0,14.0,34.0267681,-91.3431748,Arkansas
ATHENS,AR,Izard,1842.0,1847.0,True,8.0,5.0,36.0589532,-92.0723678,Arkansas
AVILLE,AR,Saline,1881.0,1881.0,True,8.0,0.0,34.6825921,-92.5851613,Arkansas
BAILEY,AR,Lee,1881.0,1883.0,True,8.0,2.0,34.89141,-90.7921007,Arkansas
BARIFIELDS POINT,AR,Mississippi,1836.0,1846.0,True,8.0,10.0,35.8236874,-89.7206355,Arkansas
BEARING CROSS,AR,Pulaski,1878.0,1878.0,True,8.0,0.0,34.769536,-92.2670941,Arkansas
BEECHLAND,AR,Union,1846.0,1853.0,True,8.0,7.0,33.303303,-92.9575254,Arkansas
BIG CREEK,AR,Phillips,1830.0,1860.0,False,8.0,30.0,34.4844706,-90.8932224,Arkansas
BIRD HILL,AR,Ashley,1879.0,1880.0,True,8.0,1.0,33.0806804,-91.7631817,Arkansas
BLACK COLONY,AR,Sevier,1879.0,1880.0,True,8.0,1.0,33.8178956,-94.0671372,Arkansas
BOLIVAR,AR,Poinsett,1839.0,1857.0,False,8.0,18.0,35.6056287,-90.6978832,Arkansas
BOWIE,AR,Desha,1873.0,1879.0,False,8.0,6.0,33.5384393,-91.3262216,Arkansas
BULA,AR,Greene,1880.0,1882.0,True,8.0,2.0,36.0470107,-90.5406486,Arkansas
CACHE,AR,Greene,1881.0,1882.0,True,8.0,1.0,36.0700694,-90.7478918,Arkansas
CADDO,AR,Clark,1822.0,1831.0,False,8.0,9.0,34.0509559,-93.1763675,Arkansas
CANADIAN,AR,Mississippi,1832.0,1852.0,False,8.0,20.0,35.9184903,-89.7466152,Arkansas
CARRIOLA,AR,Chicot,1892.0,1893.0,True,8.0,1.0,33.1070662,-91.2012216,Arkansas
CASSETOT,AR,Sevier,1884.0,1885.0,True,8.0,1.0,34.1487181,-94.2338076,Arkansas
CHAMPION,AR,Arkansas,1890.0,1892.0,True,8.0,2.0,34.1177158,-91.3771378,Arkansas
COTHM,AR,Drew,1880.0,1880.0,True,8.0,0.0,33.4712179,-91.6942877,Arkansas
COVE CREEK,AR,Hot Spring,1878.0,1878.0,True,8.0,0.0,34.4478687,-92.8948945,Arkansas
CRAWFORD COURT HOUSE,AR,Crawford,1823.0,1838.0,True,8.0,15.0,35.5884841,-94.2429568,Arkansas
DANLEY,AR,Faulkner,1877.0,1878.0,True,8.0,1.0,34.9575497,-92.3961596,Arkansas
DAVIS,AR,Columbia,1883.0,1884.0,True,8.0,1.0,33.3584582,-93.3582271,Arkansas
DESARC,AR,White,1831.0,1837.0,True,8.0,6.0,35.268752,-91.8989003,Arkansas
DOGWOOD,AR,White,1874.0,1875.0,True,8.0,1.0,35.0923099,-91.6554127,Arkansas
DOOLEY,AR,Miller,1899.0,1900.0,True,8.0,1.0,33.4687346,-93.8574057,Arkansas
DRIPPING SPRINGS,AR,Crawford,1870.0,1872.0,False,8.0,2.0,35.5331431,-94.398269,Arkansas
DUNAWAY,AR,Madison,1890.0,1890.0,True,8.0,0.0,35.9484053,-93.8537989,Arkansas
EGYPT,AR,Baxter,1874.0,1876.0,True,8.0,2.0,36.2711798,-92.5354402,Arkansas
ESCULAPIA,AR,Benton,1880.0,1882.0,True,8.0,2.0,36.3320195,-94.1029807,Arkansas
ESTEP,AR,Johnson,1878.0,1879.0,True,8.0,1.0,35.6882348,-93.5789987,Arkansas
ETTA,AR,Hot Spring,1889.0,1891.0,True,8.0,2.0,34.2895372,-92.8798926,Arkansas
FARM HILL,AR,Poinsett,1842.0,1858.0,True,8.0,16.0,35.5031308,-90.7201056,Arkansas
FLYNN,AR,Woodruff,1891.0,1892.0,True,8.0,1.0,35.1514775,-91.3048493,Arkansas
FOURCHE,AR,Perry,1871.0,1874.0,True,8.0,3.0,34.9939765,-92.6209955,Arkansas
GALLEY ROCK,AR,Pope,1837.0,1839.0,True,8.0,2.0,35.1778626,-92.969615,Arkansas
GLOVER,AR,Lonoke,1885.0,1886.0,True,8.0,1.0,34.8803604,-91.9570797,Arkansas
GOFF,AR,Cleburne,1880.0,1881.0,True,8.0,1.0,35.4814617,-91.9643074,Arkansas
GOLD CREEK,AR,Faulkner,1879.0,1880.0,True,8.0,1.0,35.0120315,-92.4140449,Arkansas
GRAYS STATION,AR,Greene,1872.0,1875.0,True,8.0,3.0,36.2326633,-90.7264699,Arkansas
GREASY VALLEY,AR,Van Buren,1877.0,1879.0,True,8.0,2.0,35.475356,-92.3382108,Arkansas
GUNTER,AR,Washington,1880.0,1882.0,False,8.0,2.0,35.8600807,-94.1071471,Arkansas
GURDON,AR,Clark,1875.0,1875.0,True,8.0,0.0,33.918392,-93.1528868,Arkansas
HAMPTON VALLEY,AR,Marion,1878.0,1880.0,True,8.0,2.0,36.1439613,-92.7773893,Arkansas
HEMPSTEAD,AR,Hempstead,1879.0,1880.0,True,8.0,1.0,33.7353046,-93.6684432,Arkansas
HOGAN,AR,Pope,1894.0,1895.0,True,8.0,1.0,35.533414,-93.0487841,Arkansas
JANSSEN,AR,Polk,1897.0,1898.0,True,8.0,1.0,34.3814972,-94.3657673,Arkansas
JOYNER,AR,Johnson,1879.0,1880.0,True,8.0,1.0,35.5161663,-93.3276973,Arkansas
KENTUCKY,AR,Saline,1879.0,1880.0,True,8.0,1.0,34.6084254,-92.6612749,Arkansas
LAFAVE,AR,Scott,1880.0,1882.0,True,8.0,2.0,34.8621663,-93.7874875,Arkansas
LEE'S CREEK,AR,Crawford,1832.0,1839.0,True,8.0,7.0,35.6814731,-94.3493785,Arkansas
LESTER,AR,Craighead,1879.0,1881.0,True,8.0,2.0,35.8778512,-90.4534383,Arkansas
LEVERNEY,AR,Montgomery,1886.0,1888.0,True,8.0,2.0,34.7000944,-93.4515793,Arkansas
LINE STORE,AR,Benton,1878.0,1879.0,True,8.0,1.0,36.4978496,-94.0243688,Arkansas
LOST CREEK,AR,Grant,1846.0,1859.0,True,8.0,13.0,34.309812,-92.4198696,Arkansas
MACKVILLE,AR,Cleveland,1880.0,1882.0,True,8.0,2.0,34.0484334,-92.4101534,Arkansas
MAGNET COVE,AR,Hot Spring,1832.0,1859.0,False,8.0,27.0,34.4542581,-92.8446148,Arkansas
MILITARY GROVE,AR,Sebastian,1879.0,1881.0,True,8.0,2.0,35.3362015,-94.1732635,Arkansas
MORNING SUN,AR,Poinsett,1867.0,1869.0,True,8.0,2.0,35.6850781,-90.6731667,Arkansas
MORO BAY,AR,Bradley,1855.0,1856.0,True,8.0,1.0,33.3065107,-92.3504217,Arkansas
MOUNT HOPE,AR,Franklin,1879.0,1880.0,True,8.0,1.0,35.363977,-93.8810324,Arkansas
MULBERRY GROVE,AR,Jefferson,1866.0,1868.0,True,8.0,2.0,34.1978697,-91.836516,Arkansas
NIEMEYER,AR,Pulaski,1883.0,1885.0,True,8.0,2.0,34.7578695,-92.2295927,Arkansas
NORMANDY,AR,Ashley,1879.0,1880.0,True,8.0,1.0,33.120847,-91.9624727,Arkansas
NUNNALLY,AR,Carroll,1879.0,1881.0,True,8.0,2.0,36.329786,-93.322592,Arkansas
OVERT,AR,White,1878.0,1881.0,True,8.0,3.0,35.2620281,-91.9773674,Arkansas
PINE WOODS,AR,Sevier,1833.0,1846.0,True,8.0,13.0,33.8178956,-94.0671372,Arkansas
POWELL,AR,Craighead,1879.0,1881.0,True,8.0,2.0,35.8786846,-90.5989984,Arkansas
PRAIRIE,AR,Drew,1879.0,1881.0,True,8.0,2.0,33.6453864,-91.6292932,Arkansas
PROSPECT BLUFF,AR,White,1871.0,1872.0,True,8.0,1.0,35.2698246,-91.6401432,Arkansas
REEDER,AR,Ouachita,1888.0,1889.0,True,8.0,1.0,33.7517864,-93.1008669,Arkansas
ROCK,AR,Drew,1894.0,1895.0,True,8.0,1.0,33.7612162,-91.9081909,Arkansas
ROSE HILL,AR,Ouachita,1870.0,1872.0,True,8.0,2.0,33.7489901,-92.6173741,Arkansas
ROSEDALE,AR,Pulaski,1876.0,1878.0,True,8.0,2.0,34.7209255,-92.3729315,Arkansas
SAND HILL,AR,Jackson,1878.0,1879.0,True,8.0,1.0,35.5045559,-91.2311492,Arkansas
SCUDDER,AR,Crittenden,1883.0,1884.0,True,8.0,1.0,35.3700855,-90.1464821,Arkansas
SHERWOOD,AR,Polk,1897.0,1897.0,True,8.0,0.0,34.3031655,-94.3382652,Arkansas
SPENCER'S SHOP,AR,Crawford,1870.0,1872.0,True,8.0,2.0,35.5670446,-94.3664556,Arkansas
SPOONVILLE,AR,Clark,1871.0,1877.0,False,8.0,6.0,34.1039873,-93.246841,Arkansas
SPRING RIVER,AR,Randolph,1851.0,1852.0,True,8.0,1.0,36.2378144,-91.1716994,Arkansas
SPRINGLAWN,AR,Carroll,1877.0,1879.0,True,8.0,2.0,36.313189,-93.811011,Arkansas
TURKEY CREEK,AR,Stone,1879.0,1881.0,True,8.0,2.0,35.7664652,-92.2098758,Arkansas
VANCE,AR,Jackson,1894.0,1894.0,True,8.0,0.0,35.7772984,-91.1637371,Arkansas
WARD,AR,Yell,1879.0,1880.0,True,8.0,1.0,34.9445361,-93.327962,Arkansas
WHITE,AR,Polk,1886.0,1889.0,False,8.0,3.0,34.4008967,-94.3633068,Arkansas
ADVANCE,AR,Clay,1886.0,1890.0,True,7.0,4.0,36.4307453,-90.268938,Arkansas
ALLEN,AR,Benton,1886.0,1888.0,True,7.0,2.0,36.19893,-94.5437836,Arkansas
ALTHARP,AR,Saline,1890.0,1900.0,True,7.0,10.0,34.5934267,-92.3701538,Arkansas
ANTIOCH,AR,Hot Spring,1855.0,1866.0,True,7.0,11.0,34.311758,-92.9868413,Arkansas
ARD,AR,Yell,1897.0,1900.0,True,7.0,3.0,35.1448093,-93.1918437,Arkansas
AUBURN,AR,Lincoln,1860.0,1883.0,False,7.0,23.0,34.0420446,-91.5345687,Arkansas
BANTY,AR,Pulaski,1890.0,1896.0,False,7.0,6.0,34.7412031,-92.4959917,Arkansas
BARCELONA,AR,Crawford,1888.0,1896.0,True,7.0,8.0,35.6206416,-94.4560487,Arkansas
BEECH WOODS,AR,Newton,1867.0,1881.0,True,7.0,14.0,36.0081326,-93.369071,Arkansas
BELCHER,AR,Prairie,1875.0,1883.0,False,7.0,8.0,34.6042553,-91.646236,Arkansas
BELLVILLE,AR,Sevier,1860.0,1867.0,True,7.0,7.0,33.9387269,-94.1749202,Arkansas
BELTON,AR,Sevier,1892.0,1897.0,True,7.0,5.0,34.0369859,-94.3416636,Arkansas
BETHEL,AR,Pulaski,1860.0,1866.0,True,7.0,6.0,34.657037,-92.1520904,Arkansas
BIG HILL,AR,Calhoun,1873.0,1881.0,True,7.0,8.0,33.6656649,-92.4154298,Arkansas
BIG SPRING,AR,Izard,1853.0,1867.0,True,7.0,14.0,36.0178421,-91.7545825,Arkansas
BLACK FOX,AR,Scott,1873.0,1877.0,True,7.0,4.0,34.7670479,-94.4310542,Arkansas
BLACKVILLE,AR,Conway,1878.0,1889.0,False,7.0,11.0,35.2223051,-92.8412781,Arkansas
BLOOMINGTON,AR,Benton,1858.0,1881.0,False,7.0,23.0,36.2520916,-94.1329351,Arkansas
BOSTON,AR,Washington,1858.0,1868.0,False,7.0,10.0,35.8063785,-94.4054008,Arkansas
BOX SPRING,AR,Yell,1879.0,1886.0,True,7.0,7.0,35.1595326,-93.3843503,Arkansas
BRAD,AR,White,1889.0,1895.0,True,7.0,6.0,35.1434206,-91.5918001,Arkansas
BRANCHVILLE,AR,Lincoln,1858.0,1872.0,False,7.0,14.0,33.9023245,-91.880968,Arkansas
BROWN,AR,Clay,1884.0,1886.0,True,7.0,2.0,36.4706093,-90.6695538,Arkansas
BRUSHY LAKE,AR,Cross,1876.0,1880.0,True,7.0,4.0,35.3121264,-90.9598006,Arkansas
BURROWSVILLE,AR,Searcy,1857.0,1867.0,True,7.0,10.0,35.9089643,-92.6312746,Arkansas
CADDO COVE,AR,Montgomery,1848.0,1866.0,False,7.0,18.0,34.4751018,-93.7585262,Arkansas
CAMPBELL,AR,Pulaski,1871.0,1881.0,False,7.0,10.0,34.5116395,-92.1993405,Arkansas
CANAAN,AR,Lee,1880.0,1885.0,True,7.0,5.0,34.8548174,-90.79289,Arkansas
CAT ISLAND,AR,Crittenden,1858.0,1867.0,True,7.0,9.0,34.955929,-90.2789853,Arkansas
CAVANESS LANDING,AR,Bradley,1879.0,1884.0,True,7.0,5.0,33.6512186,-91.9909701,Arkansas
CEDAR HILL,AR,Yell,1871.0,1876.0,True,7.0,5.0,35.1242556,-93.3874063,Arkansas
CENTREVILLE,AR,Montgomery,1851.0,1878.0,False,7.0,27.0,34.4012514,-93.6194304,Arkansas
CHEROKEE BAY,AR,Randolph,1857.0,1886.0,False,7.0,29.0,36.3320084,-90.7598383,Arkansas
CLOBBY,AR,Boone,1905.0,1905.0,True,7.0,0.0,36.31237,-93.0126306,Arkansas
COOPER,AR,Grant,1878.0,1886.0,True,7.0,8.0,34.3062065,-92.5659931,Arkansas
COREA FABRE,AR,Ouachita,1830.0,1843.0,True,7.0,13.0,33.5845582,-92.8343294,Arkansas
CORN,AR,Sevier,1902.0,1903.0,True,7.0,1.0,33.8542839,-94.0340804,Arkansas
COTTONLAND,AR,Union,1901.0,1902.0,True,7.0,1.0,33.1331844,-92.4048668,Arkansas
CROSS HOLLOW,AR,Benton,1870.0,1881.0,True,7.0,11.0,36.2784093,-94.1132584,Arkansas
CROSS ROADS,AR,Washington,1875.0,1884.0,False,7.0,9.0,36.1892445,-94.1613151,Arkansas
CROWELL,AR,Benton,1881.0,1887.0,True,7.0,6.0,36.4484053,-93.9740892,Arkansas
CROWLEYS,AR,Greene,1832.0,1846.0,False,7.0,14.0,36.0928461,-90.6139988,Arkansas
CRUMP,AR,Benton,1886.0,1894.0,True,7.0,8.0,36.4895194,-94.5060506,Arkansas
CUT OFF,AR,Drew,1850.0,1873.0,False,7.0,23.0,33.5315005,-91.5654022,Arkansas
CYPRESS,AR,Phillips,1875.0,1875.0,True,7.0,0.0,34.4765256,-91.018913,Arkansas
DE GRAY,AR,Clark,1856.0,1866.0,True,7.0,10.0,34.1750954,-93.1476746,Arkansas
DE LA PLAINE,AR,Greene,1875.0,1883.0,True,7.0,8.0,36.2326633,-90.7264699,Arkansas
DE LUCE,AR,Arkansas,1887.0,1892.0,True,7.0,5.0,34.2087122,-91.2467849,Arkansas
DRY RUN,AR,Dallas,1886.0,1893.0,True,7.0,7.0,33.8226091,-92.3681945,Arkansas
DUMP,AR,Washington,1885.0,1896.0,False,7.0,11.0,35.7845247,-93.9876987,Arkansas
DUNN,AR,Monroe,1880.0,1895.0,True,7.0,15.0,34.6675977,-91.1042873,Arkansas
DWIGHT,AR,Pope,1823.0,1852.0,False,7.0,29.0,35.3189663,-93.1885023,Arkansas
EDGE HILL,AR,Polk,1858.0,1873.0,False,7.0,15.0,34.5473282,-94.3446582,Arkansas
EDWARD,AR,Independence,1891.0,1895.0,True,7.0,4.0,35.7425705,-91.3912368,Arkansas
EGGVILLE,AR,Sevier,1901.0,1902.0,True,7.0,1.0,34.0209481,-94.2421463,Arkansas
ELKHORN,AR,Benton,1886.0,1896.0,False,7.0,10.0,36.4536834,-94.0157571,Arkansas
ELLER,AR,Baxter,1886.0,1889.0,True,7.0,3.0,36.1806251,-92.3446022,Arkansas
ENON,AR,Boone,1884.0,1887.0,True,7.0,3.0,36.3817349,-92.8985052,Arkansas
ESTES,AR,Boone,1901.0,1901.0,True,7.0,0.0,36.2952273,-93.2897123,Arkansas
EVA,AR,White,1881.0,1888.0,True,7.0,7.0,35.1948069,-91.9676445,Arkansas
EVERGREEN,AR,Lawrence,1885.0,1886.0,True,7.0,1.0,36.0570146,-90.8873402,Arkansas
FAIR HILL,AR,Yell,1879.0,1888.0,True,7.0,9.0,34.9448148,-93.4643558,Arkansas
FAIRLAND,AR,Miller,1882.0,1890.0,True,7.0,8.0,33.2306843,-93.8437912,Arkansas
FAIRMOUNT,AR,Prairie,1883.0,1900.0,True,7.0,17.0,34.595651,-91.5990191,Arkansas
FALCON,AR,Nevada,1852.0,1866.0,True,7.0,14.0,33.4645658,-93.4135071,Arkansas
FARMVILLE,AR,Bradley,1892.0,1894.0,True,7.0,2.0,33.5156672,-92.1904199,Arkansas
FAULKNER GAP,AR,Faulkner,1879.0,1894.0,False,7.0,15.0,34.9689771,-92.250706,Arkansas
FENN,AR,Franklin,1886.0,1887.0,True,7.0,1.0,35.6389719,-94.0163117,Arkansas
FERGUSONS MILL,AR,Yell,1878.0,1886.0,True,7.0,8.0,35.0928277,-93.4486372,Arkansas
FITZGERALD,AR,Jackson,1884.0,1890.0,True,7.0,6.0,35.6525787,-91.2887399,Arkansas
FIVEFORKS,AR,Jefferson,1901.0,1902.0,True,7.0,1.0,34.2870416,-91.8112438,Arkansas
FLINT,AR,Benton,1890.0,1895.0,True,7.0,5.0,36.2236909,-94.4682709,Arkansas
FORD,AR,Jackson,1887.0,1890.0,True,7.0,3.0,35.5856291,-91.0609492,Arkansas
FOREST GROVE,AR,Lafayette,1858.0,1866.0,True,7.0,8.0,33.1340206,-93.5123969,Arkansas
FREDONIA,AR,Prairie,1872.0,1881.0,False,7.0,9.0,34.8209271,-91.4042954,Arkansas
GALLOWAY,AR,Independence,1858.0,1866.0,True,7.0,8.0,35.8956295,-91.6654185,Arkansas
GALLY ROCK,AR,Pope,1858.0,1871.0,False,7.0,13.0,35.1756341,-92.9715528,Arkansas
GAP SPRINGS,AR,Polk,1852.0,1866.0,True,7.0,14.0,34.4292423,-94.1198907,Arkansas
GEIGERSVILLE,AR,Yell,1878.0,1882.0,True,7.0,4.0,34.9950922,-93.5149127,Arkansas
GEORGETOWN,AR,Washington,1884.0,1885.0,True,7.0,1.0,35.9476864,-94.4262466,Arkansas
GLEGHORN,AR,Clay,1901.0,1902.0,True,7.0,1.0,36.3833942,-90.5056641,Arkansas
GREEN MOUNT,AR,Lincoln,1855.0,1880.0,False,7.0,25.0,33.8070426,-91.7445681,Arkansas
GREENVILLE,AR,Bradley,1895.0,1899.0,True,7.0,4.0,33.4765014,-92.132084,Arkansas
GRIFFIN,AR,Pope,1885.0,1887.0,True,7.0,2.0,35.4306425,-92.8879601,Arkansas
GULLY,AR,Izard,1892.0,1900.0,True,7.0,8.0,35.9839544,-92.0193111,Arkansas
GULPRA,AR,Garland,1900.0,1901.0,True,7.0,1.0,34.5084232,-92.9390635,Arkansas
GUM SPRINGS,AR,Cleveland,1878.0,1887.0,True,7.0,9.0,33.9787123,-92.2740373,Arkansas
HALE,AR,Crawford,1888.0,1895.0,True,7.0,7.0,35.6577431,-94.3984455,Arkansas
HALESIDE,AR,Lee,1879.0,1884.0,False,7.0,5.0,34.7178766,-90.6553856,Arkansas
HEMPSTEAD COURT HOUSE,AR,Hempstead,1820.0,1839.0,True,7.0,19.0,33.774005,-93.6826796,Arkansas
HENDERSON,AR,Hot Spring,1859.0,1866.0,True,7.0,7.0,34.3717029,-93.3327118,Arkansas
HERMANSBURG,AR,Washington,1853.0,1867.0,True,7.0,14.0,35.875638,-94.4916065,Arkansas
HICKMANS BEND,AR,Mississippi,1846.0,1867.0,True,7.0,21.0,35.9442408,-89.7331361,Arkansas
HICKORY,AR,Benton,1856.0,1871.0,False,7.0,15.0,36.2609124,-94.423269,Arkansas
HICKS STATION,AR,Lonoke,1867.0,1872.0,True,7.0,5.0,34.7833929,-91.8937978,Arkansas
HICKSVILLE,AR,Phillips,1883.0,1894.0,True,7.0,11.0,34.589266,-90.9751166,Arkansas
HILLTON,AR,Sharp,1871.0,1882.0,False,7.0,11.0,35.9403509,-91.4962471,Arkansas
HOLM,AR,Washington,1871.0,1881.0,True,7.0,10.0,36.0955301,-94.2142046,Arkansas
HOOD,AR,Washington,1885.0,1892.0,True,7.0,7.0,36.0055855,-94.009209,Arkansas
HOPEDALE,AR,Desha,1878.0,1892.0,False,7.0,14.0,33.7917723,-91.4662337,Arkansas
HOPEWELL,AR,Bradley,1860.0,1866.0,True,7.0,6.0,33.3853933,-92.1081932,Arkansas
HOWELL,AR,Pope,1860.0,1866.0,False,7.0,6.0,35.2509115,-93.1621129,Arkansas
INDIAN CREEK,AR,Carroll,1876.0,1893.0,True,7.0,17.0,36.432401,-93.513479,Arkansas
IZARD COURT HOUSE,AR,Izard,1826.0,1844.0,True,7.0,18.0,36.0948699,-91.9134103,Arkansas
JABUR,AR,Washington,1896.0,1900.0,True,7.0,4.0,36.0589694,-94.3113209,Arkansas
JOHNSONVILLE,AR,Johnson,1875.0,1882.0,False,7.0,7.0,35.5161663,-93.3276973,Arkansas
JONESDALE,AR,Baxter,1894.0,1896.0,False,7.0,2.0,36.0570163,-92.3468244,Arkansas
KELLER,AR,Little River,1890.0,1892.0,True,7.0,2.0,33.6689937,-94.1252404,Arkansas
KINGS RIVER,AR,Carroll,1833.0,1867.0,True,7.0,34.0,36.4282171,-93.6505357,Arkansas
KIZER,AR,Lafayette,1894.0,1899.0,True,7.0,5.0,33.0651335,-93.662676,Arkansas
KNOWLTON'S LANDING,AR,Desha,1868.0,1874.0,True,7.0,6.0,34.1020504,-90.9389968,Arkansas
LA GRUE,AR,Arkansas,1872.0,1875.0,True,7.0,3.0,34.2823487,-91.3434629,Arkansas
LA GRUE,AR,Prairie,1857.0,1866.0,True,7.0,9.0,34.6853721,-91.5829087,Arkansas
LAGRUE,AR,Arkansas,1897.0,1899.0,True,7.0,2.0,34.4523207,-91.3217892,Arkansas
LAMARTINE,AR,Columbia,1851.0,1884.0,False,7.0,33.0,33.3931793,-93.2887806,Arkansas
L'ANGUILLE,AR,Cross,1875.0,1882.0,False,7.0,7.0,35.2367547,-90.894283,Arkansas
LEBANON,AR,Searcy,1840.0,1859.0,False,7.0,19.0,35.9161867,-92.7154429,Arkansas
LECROY,AR,Hot Spring,1890.0,1899.0,False,7.0,9.0,34.4373134,-92.8779494,Arkansas
LINDEN,AR,Saint Francis,1852.0,1877.0,False,7.0,25.0,34.9264763,-90.6917694,Arkansas
LINDON,AR,Pike,1879.0,1882.0,True,7.0,3.0,34.3128838,-93.8418588,Arkansas
LINDSAY,AR,Lawrence,1886.0,1900.0,False,7.0,14.0,35.9909052,-91.0165104,Arkansas
LONE GROVE,AR,Woodruff,1873.0,1892.0,False,7.0,19.0,35.1558278,-91.3435378,Arkansas
LOUISE,AR,Mississippi,1881.0,1886.0,False,7.0,5.0,35.5238544,-90.1588686,Arkansas
LOYAL,AR,Sharp,1880.0,1892.0,True,7.0,12.0,35.9412694,-91.5477456,Arkansas
MALLETT,AR,Conway,1901.0,1901.0,True,7.0,0.0,35.1245246,-92.7807174,Arkansas
MANKINS,AR,Washington,1882.0,1887.0,True,7.0,5.0,35.964802,-94.0502006,Arkansas
MARIE SALINE,AR,Ashley,1858.0,1866.0,True,7.0,8.0,33.055115,-92.0450117,Arkansas
MAZARNE,AR,Montgomery,1858.0,1861.0,False,7.0,3.0,34.4709268,-93.4918559,Arkansas
MC DONALD,AR,Jackson,1858.0,1884.0,False,7.0,26.0,35.440632,-91.2467871,Arkansas
MC KINNEY,AR,Montgomery,1879.0,1883.0,False,7.0,4.0,34.5706441,-93.5462955,Arkansas
MEAD,AR,Saint Francis,1888.0,1895.0,True,7.0,7.0,35.023425,-90.6848307,Arkansas
MELTON,AR,Jefferson,1868.0,1877.0,False,7.0,9.0,34.1217785,-91.9046347,Arkansas
MIDWAY,AR,Hot Spring,1850.0,1878.0,False,7.0,28.0,34.2542589,-92.9635065,Arkansas
MILAN,AR,Yell,1886.0,1894.0,True,7.0,8.0,35.1070337,-93.4007404,Arkansas
MILL CREEK,AR,Izard,1854.0,1876.0,False,7.0,22.0,36.0595148,-91.9084819,Arkansas
MILL CREEK,AR,Pope,1892.0,1894.0,True,7.0,2.0,35.3231395,-93.2043429,Arkansas
MILLKIN,AR,Little River,1890.0,1892.0,True,7.0,2.0,33.7415212,-94.1474761,Arkansas
MILTON,AR,Miller,1892.0,1894.0,True,7.0,2.0,33.3912369,-93.9596293,Arkansas
MINE CREEK,AR,Hempstead,1872.0,1879.0,True,7.0,7.0,33.9195245,-93.773443,Arkansas
MOUNT ELBA,AR,Cleveland,1847.0,1875.0,False,7.0,28.0,33.8509367,-92.158477,Arkansas
MOUNT ETNA,AR,Independence,1879.0,1883.0,True,7.0,4.0,35.9186843,-91.7562547,Arkansas
MOUNT VERNON,AR,Saint Francis,1842.0,1855.0,True,7.0,13.0,35.0250915,-90.787612,Arkansas
MOUTH OF CACHE,AR,Monroe,1828.0,1837.0,True,7.0,9.0,34.6924486,-91.3112919,Arkansas
NALLS,AR,Columbia,1880.0,1888.0,True,7.0,8.0,33.2637391,-93.0548869,Arkansas
NATIONAL,AR,Logan,1881.0,1900.0,True,7.0,19.0,35.3084226,-93.883533,Arkansas
NATIVE,AR,Clark,1897.0,1900.0,True,7.0,3.0,33.9448266,-93.2982286,Arkansas
NEW MARKET,AR,Sebastian,1853.0,1872.0,False,7.0,19.0,35.168427,-94.0935399,Arkansas
NEW MOON,AR,Howard,1881.0,1896.0,False,7.0,15.0,34.3292753,-94.0418647,Arkansas
NOLTON,AR,Cross,1883.0,1892.0,True,7.0,9.0,35.3173081,-91.0140088,Arkansas
NORTH FORK,AR,Baxter,1888.0,1892.0,False,7.0,4.0,36.2095132,-92.284323,Arkansas
OAK BLUFF,AR,Clay,1877.0,1882.0,True,7.0,5.0,36.2833958,-90.2626001,Arkansas
OAK GROVE,AR,Arkansas,1860.0,1866.0,True,7.0,6.0,34.0778793,-91.2842848,Arkansas
OAK RIDGE,AR,Craighead,1848.0,1866.0,True,7.0,18.0,35.8939623,-90.7840037,Arkansas
OMEGA,AR,Yell,1872.0,1888.0,False,7.0,16.0,35.1475873,-93.223789,Arkansas
ORCHARD,AR,Benton,1897.0,1900.0,True,7.0,3.0,36.2672015,-94.4928758,Arkansas
ORR,AR,Miller,1901.0,1901.0,True,7.0,0.0,33.430125,-94.0421325,Arkansas
ORTON,AR,Little River,1907.0,1908.0,True,7.0,1.0,33.6462319,-93.92352,Arkansas
OSAGE,AR,Benton,1836.0,1843.0,True,7.0,7.0,36.3530415,-94.2118409,Arkansas
OUACHITA,AR,Ouachita,1856.0,1867.0,True,7.0,11.0,33.593355,-92.8819344,Arkansas
PAMPAS,AR,Arkansas,1905.0,1906.0,True,7.0,1.0,34.1584325,-91.4962345,Arkansas
PAXSON,AR,White,1886.0,1891.0,False,7.0,5.0,35.1418355,-91.7862638,Arkansas
PETTIGREW MILLS,AR,Benton,1884.0,1888.0,True,7.0,4.0,36.2872975,-94.0690905,Arkansas
PIEDMONT,AR,Pulaski,1892.0,1899.0,True,7.0,7.0,34.7931467,-92.4129331,Arkansas
PILLOW,AR,Phillips,1889.0,1894.0,False,7.0,5.0,34.546212,-90.7159435,Arkansas
PILLOWS,AR,Phillips,1878.0,1881.0,True,7.0,3.0,34.546212,-90.7159435,Arkansas
PINCHBACK'S MILLS,AR,Cleveland,1878.0,1893.0,True,7.0,15.0,34.0492668,-92.4568216,Arkansas
PINE HILL,AR,Ashley,1870.0,1885.0,False,7.0,15.0,33.2659517,-91.9237431,Arkansas
PINELAND,AR,Pike,1883.0,1890.0,True,7.0,7.0,34.262322,-93.539908,Arkansas
